$GPGGA,082426.000,2500.4644,N,12129.0406,E,1,4,8.20,-9.2,M,15.2,M,,*76
$GPRMC,082427.000,A,2500.4665,N,12129.0482,E,4.17,63.27,110618,,,A*59
$GPGGA,083935.000,2500.4701,N,12129.0562,E,1,4,7.08,11.6,M,15.2,M,,*6E
$GPRMC,083936.000,A,2500.4682,N,12129.0517,E,4.72,260.25,110618,,,A*61
$GPGGA,084039.000,2500.4670,N,12129.0608,E,1,4,2.96,30.1,M,15.2,M,,*62
$GPRMC,084040.000,A,2500.4671,N,12129.0609,E,1.76,48.41,110618,,,A*55
$GPGGA,084317.000,2500.4696,N,12129.0740,E,1,4,6.85,66.9,M,15.2,M,,*65
$GPRMC,084318.000,A,2500.4700,N,12129.0724,E,0.91,37.86,110618,,,A*59
$GPGGA,084532.000,2500.4719,N,12129.0431,E,1,5,2.77,20.9,M,15.2,M,,*6D
$GPRMC,084533.000,A,2500.4715,N,12129.0360,E,1.67,104.97,110618,,,A*6F
$GPGGA,084636.000,2500.4692,N,12129.0768,E,1,4,2.85,82.7,M,15.2,M,,*6D
$GPRMC,084637.000,A,2500.4688,N,12129.0702,E,9.95,262.69,110618,,,A*6A
$GPGGA,084748.000,2500.4770,N,12129.0963,E,1,5,2.76,95.8,M,15.2,M,,*69
$GPRMC,084749.000,A,2500.4778,N,12129.1004,E,0.78,80.01,110618,,,A*56
$GPGGA,084908.000,2500.4650,N,12129.0551,E,1,4,2.84,-0.2,M,15.2,M,,*7A
$GPRMC,084909.000,A,2500.4643,N,12129.0550,E,3.03,216.65,110618,,,A*60
$GPGGA,085031.000,2500.4743,N,12129.0633,E,1,4,2.83,29.4,M,15.2,M,,*6B
$GPRMC,085032.000,A,2500.4753,N,12129.0611,E,3.10,93.92,110618,,,A*53
$GPGGA,085214.000,2500.4672,N,12129.0946,E,1,5,2.13,95.6,M,15.2,M,,*6D
$GPRMC,085215.000,A,2500.4686,N,12129.0909,E,1.38,259.43,110618,,,A*6B
$GPGGA,085419.000,2500.4782,N,12129.1018,E,1,6,2.02,71.5,M,15.2,M,,*61
$GPRMC,085420.000,A,2500.4810,N,12129.1050,E,0.89,309.42,110618,,,A*60
$GPGGA,085508.084,2500.4889,N,12129.0859,E,1,4,2.81,83.0,M,15.2,M,,*65
$GPRMC,085510.000,A,2500.4856,N,12129.0902,E,3.42,267.52,110618,,,A*63
$GPGGA,085556.091,2500.4973,N,12129.0687,E,1,4,2.80,84.0,M,15.2,M,,*65
$GPRMC,085558.000,A,2500.4805,N,12129.0890,E,5.56,283.05,110618,,,A*68
$GPGGA,085703.082,2500.4777,N,12129.0888,E,1,3,3.54,82.7,M,15.2,M,,*60
$GPRMC,085705.000,A,2500.4764,N,12129.0909,E,0.13,43.21,110618,,,A*57
$GPGGA,085756.071,2500.4792,N,12129.0822,E,1,4,2.80,82.2,M,15.2,M,,*6D
$GPRMC,085758.000,A,2500.4728,N,12129.0895,E,1.99,277.88,110618,,,A*66
$GPGGA,085856.061,2500.4959,N,12129.0792,E,1,4,2.79,82.4,M,15.2,M,,*6E
$GPRMC,085858.000,A,2500.4753,N,12129.0928,E,1.45,74.04,110618,,,A*56
$GPGGA,085958.050,2500.4757,N,12129.1082,E,1,5,2.18,82.6,M,15.2,M,,*60
$GPRMC,090000.000,A,2500.4739,N,12129.1129,E,0.30,39.85,110618,,,A*50
$GPGGA,090047.000,2500.4720,N,12129.0949,E,1,4,2.78,78.1,M,15.2,M,,*6C
$GPRMC,090048.000,A,2500.4737,N,12129.0959,E,0.16,225.95,110618,,,A*66
$GPGGA,090132.000,2500.4713,N,12129.1007,E,1,4,2.78,77.3,M,15.2,M,,*60
$GPRMC,090133.000,A,2500.4719,N,12129.0996,E,3.58,68.65,110618,,,A*59
$GPGGA,090226.023,2500.4828,N,12129.1024,E,1,4,2.78,87.8,M,15.2,M,,*65
$GPRMC,090228.000,A,2500.4724,N,12129.1085,E,0.29,332.20,110618,,,A*6C
$GPGGA,090359.000,2500.4633,N,12129.1051,E,1,5,2.21,96.1,M,15.2,M,,*6F
$GPRMC,090400.000,A,2500.4655,N,12129.1035,E,1.29,82.34,110618,,,A*50
$GPGGA,090456.981,2500.4309,N,12129.2890,E,1,5,2.23,502.4,M,15.2,M,,*52
$GPRMC,090457.981,A,2500.4384,N,12129.2526,E,6.32,279.96,110618,,,A*6C
$GPGGA,090539.000,2500.4721,N,12129.0944,E,1,4,2.77,95.1,M,15.2,M,,*60
$GPRMC,090540.000,A,2500.4746,N,12129.0843,E,0.99,110.86,110618,,,A*67
$GPGGA,090621.000,2500.4698,N,12129.0865,E,1,4,2.77,71.1,M,15.2,M,,*61
$GPRMC,090622.000,A,2500.4694,N,12129.0809,E,1.37,290.28,110618,,,A*6A
$GPGGA,090705.964,2500.4759,N,12129.0904,E,1,5,2.24,73.7,M,15.2,M,,*64
$GPRMC,090706.966,A,2500.4766,N,12129.0929,E,2.09,277.44,110618,,,A*66
$GPGGA,092618.000,2500.4801,N,12129.0890,E,1,4,2.74,91.4,M,15.2,M,,*65
$GPRMC,092619.000,A,2500.4801,N,12129.0893,E,0.67,70.11,110618,,,A*53
$GPGGA,095216.000,2500.4848,N,12129.0404,E,1,4,3.28,-14.2,M,15.2,M,,*4A
$GPRMC,095217.000,A,2500.4847,N,12129.0394,E,1.50,28.08,110618,,,A*50
$GPGGA,095351.000,2500.4865,N,12129.1247,E,1,4,3.31,151.1,M,15.2,M,,*51
$GPRMC,095352.000,A,2500.4862,N,12129.1242,E,0.68,257.44,110618,,,A*64
$GPGGA,095557.000,2500.4917,N,12129.1274,E,1,4,3.36,150.8,M,15.2,M,,*5A
$GPRMC,095558.000,A,2500.4916,N,12129.1274,E,0.28,204.70,110618,,,A*6A
$GPGGA,095753.000,2500.4639,N,12129.0408,E,1,4,3.40,-15.3,M,15.2,M,,*44
$GPRMC,095754.000,A,2500.4639,N,12129.0422,E,0.90,149.77,110618,,,A*6C
$GPGGA,095933.000,2500.4559,N,12128.9933,E,1,4,20.56,-99.6,M,15.2,M,,*73
$GPRMC,095934.000,A,2500.4558,N,12128.9935,E,0.60,15.26,110618,,,A*50
$GPGGA,102553.000,2500.3990,N,12128.9856,E,1,4,3.51,-199.1,M,15.2,M,,*7A
$GPRMC,102554.000,A,2500.4054,N,12128.9876,E,2.23,205.11,110618,,,A*68
$GPGGA,102710.000,2500.4596,N,12129.0294,E,1,4,3.50,-15.4,M,15.2,M,,*4F
$GPRMC,102711.000,A,2500.4564,N,12129.0272,E,7.79,228.57,110618,,,A*6C
$GPGGA,102804.000,2500.4714,N,12129.0396,E,1,4,3.49,7.1,M,15.2,M,,*5D
$GPRMC,102805.000,A,2500.4689,N,12129.0388,E,3.49,350.55,110618,,,A*69
$GPGGA,102900.000,2500.5044,N,12129.0423,E,1,4,3.48,102.8,M,15.2,M,,*5E
$GPRMC,102901.000,A,2500.5023,N,12129.0386,E,3.30,25.57,110618,,,A*58
$GPGGA,103015.000,2500.4510,N,12129.0253,E,1,4,3.47,-55.7,M,15.2,M,,*48
$GPRMC,103016.000,A,2500.4508,N,12129.0227,E,0.30,16.76,110618,,,A*51
$GPGGA,103106.000,2500.4456,N,12129.0241,E,1,4,3.46,-64.6,M,15.2,M,,*49
$GPRMC,103107.000,A,2500.4360,N,12129.0296,E,3.73,241.46,110618,,,A*65
$GPGGA,103157.000,2500.4285,N,12129.0196,E,1,4,3.45,-119.2,M,15.2,M,,*70
$GPRMC,103158.000,A,2500.4321,N,12129.0242,E,4.69,260.48,110618,,,A*62
$GPGGA,103245.000,2500.4672,N,12129.0477,E,1,4,3.44,7.7,M,15.2,M,,*51
$GPRMC,103246.000,A,2500.4689,N,12129.0481,E,1.39,7.66,110618,,,A*6F
$GPGGA,103341.000,2500.4566,N,12129.0417,E,1,4,3.43,-33.5,M,15.2,M,,*4B
$GPRMC,103342.000,A,2500.4493,N,12129.0419,E,1.33,312.64,110618,,,A*6D
$GPGGA,103429.000,2500.4630,N,12129.0245,E,1,4,3.42,-33.0,M,15.2,M,,*47
$GPRMC,103430.000,A,2500.4636,N,12129.0270,E,2.12,44.60,110618,,,A*5F
$GPGGA,103518.000,2500.4413,N,12129.0284,E,1,4,3.41,-88.0,M,15.2,M,,*49
$GPRMC,103519.000,A,2500.4397,N,12129.0211,E,3.46,271.17,110618,,,A*68
$GPGGA,103603.000,2500.4936,N,12129.0409,E,1,4,3.41,59.0,M,15.2,M,,*68
$GPRMC,103604.000,A,2500.4945,N,12129.0385,E,2.17,266.59,110618,,,A*67
$GPGGA,103708.000,2500.4547,N,12129.0508,E,1,4,3.40,-18.0,M,15.2,M,,*41
$GPRMC,103709.000,A,2500.4662,N,12129.0442,E,2.86,333.96,110618,,,A*67
$GPGGA,103754.000,2500.4719,N,12129.0435,E,1,4,3.39,0.1,M,15.2,M,,*55
$GPRMC,103755.000,A,2500.4738,N,12129.0424,E,4.95,261.45,110618,,,A*6C
$GPGGA,103856.000,2500.4712,N,12129.0546,E,1,4,3.38,20.3,M,15.2,M,,*67
$GPRMC,103857.000,A,2500.4677,N,12129.0574,E,2.27,61.10,110618,,,A*52
$GPGGA,103940.000,2500.4617,N,12129.0414,E,1,4,3.38,-13.5,M,15.2,M,,*48
$GPRMC,103941.000,A,2500.4635,N,12129.0418,E,2.32,291.75,110618,,,A*63
$GPGGA,104048.000,2500.4601,N,12129.0377,E,1,4,3.37,-17.3,M,15.2,M,,*46
$GPRMC,104049.000,A,2500.4604,N,12129.0373,E,5.31,272.73,110618,,,A*62
$GPGGA,104142.000,2500.4785,N,12129.0364,E,1,4,3.36,23.5,M,15.2,M,,*6F
$GPRMC,104143.000,A,2500.4817,N,12129.0395,E,4.24,331.83,110618,,,A*61
$GPGGA,104228.000,2500.4816,N,12129.0194,E,1,4,3.35,35.9,M,15.2,M,,*60
$GPRMC,104229.000,A,2500.4760,N,12129.0296,E,2.48,219.28,110618,,,A*65
$GPGGA,104311.000,2500.4788,N,12129.0407,E,1,4,3.35,25.6,M,15.2,M,,*62
$GPRMC,104312.000,A,2500.4788,N,12129.0358,E,3.31,267.24,110618,,,A*63
$GPGGA,104357.000,2500.4679,N,12129.0425,E,1,4,3.34,2.6,M,15.2,M,,*5B
$GPRMC,104358.000,A,2500.4673,N,12129.0445,E,3.44,243.81,110618,,,A*68
$GPGGA,104458.000,2500.4635,N,12129.0469,E,1,4,3.33,3.0,M,15.2,M,,*53
$GPRMC,104459.000,A,2500.4639,N,12129.0501,E,2.60,314.06,110618,,,A*6A
$GPGGA,104547.000,2500.4859,N,12129.0449,E,1,4,3.33,69.4,M,15.2,M,,*62
$GPRMC,104548.000,A,2500.4842,N,12129.0430,E,2.39,92.70,110618,,,A*5A
$GPGGA,104637.000,2500.4718,N,12129.0404,E,1,4,3.33,20.0,M,15.2,M,,*6C
$GPRMC,104638.000,A,2500.4729,N,12129.0433,E,1.75,270.43,110618,,,A*6A
$GPGGA,104723.000,2500.4747,N,12129.0564,E,1,4,3.32,39.5,M,15.2,M,,*69
$GPRMC,104724.000,A,2500.4732,N,12129.0540,E,3.13,249.71,110618,,,A*60
$GPGGA,104813.000,2500.4666,N,12129.0730,E,1,4,3.32,40.9,M,15.2,M,,*66
$GPRMC,104814.000,A,2500.4663,N,12129.0733,E,1.50,127.96,110618,,,A*68
$GPGGA,104904.000,2500.4783,N,12129.0305,E,1,4,3.31,45.3,M,15.2,M,,*65
$GPRMC,104905.000,A,2500.4781,N,12129.0304,E,0.64,84.25,110618,,,A*52
$GPGGA,104956.000,2500.4728,N,12129.0373,E,1,4,3.31,15.1,M,15.2,M,,*65
$GPRMC,104957.000,A,2500.4732,N,12129.0374,E,5.65,273.43,110618,,,A*64
$GPGGA,105053.000,2500.4762,N,12129.0749,E,1,4,3.31,43.6,M,15.2,M,,*6F
$GPRMC,105054.000,A,2500.4793,N,12129.0792,E,4.53,73.59,110618,,,A*55
$GPGGA,094251.000,2500.4800,N,12129.0805,E,1,6,1.96,63.6,M,15.2,M,,*65
$GPRMC,094252.000,A,2500.4799,N,12129.0806,E,0.48,120.77,140618,,,A*60
$GPGGA,102034.000,2500.4881,N,12129.0583,E,1,5,3.04,55.1,M,15.2,M,,*68
$GPRMC,102035.000,A,2500.4881,N,12129.0583,E,0.07,267.39,140618,,,A*6A
$GPGGA,102119.385,2500.4690,N,12129.0810,E,1,5,3.19,55.7,M,15.2,M,,*6B
$GPRMC,102120.385,A,2500.4684,N,12129.0820,E,0.15,231.34,140618,,,A*63
$GPGGA,102157.345,2500.4778,N,12129.0789,E,1,6,1.84,55.2,M,15.2,M,,*65
$GPRMC,102158.347,A,2500.4774,N,12129.0824,E,0.35,192.47,140618,,,A*64
$GPGGA,102238.508,2500.4301,N,12129.0833,E,1,6,1.83,55.2,M,15.2,M,,*63
$GPRMC,102239.499,A,2500.4370,N,12129.0839,E,1.49,23.37,140618,,,A*5E
$GPGGA,102319.379,2500.4576,N,12129.0756,E,1,5,3.00,56.2,M,15.2,M,,*62
$GPRMC,102320.379,A,2500.4654,N,12129.0772,E,0.68,235.34,140618,,,A*69
$GPGGA,102407.372,2500.4533,N,12129.0765,E,1,5,2.94,55.6,M,15.2,M,,*6B
$GPRMC,102409.000,A,2500.4688,N,12129.0761,E,0.52,40.86,140618,,,A*5B
$GPGGA,102451.268,2500.4854,N,12129.0749,E,1,5,2.88,73.0,M,15.2,M,,*6F
$GPRMC,102452.267,A,2500.4861,N,12129.0760,E,2.67,20.48,140618,,,A*5E
$GPGGA,102532.400,2500.4548,N,12129.0791,E,1,6,1.77,73.7,M,15.2,M,,*61
$GPRMC,102533.387,A,2500.4589,N,12129.0794,E,0.06,318.35,140618,,,A*60
$GPGGA,102614.348,2500.4818,N,12129.0822,E,1,5,2.77,72.7,M,15.2,M,,*63
$GPRMC,102616.000,A,2500.4753,N,12129.0832,E,0.86,130.26,140618,,,A*6C
$GPGGA,102659.351,2500.4603,N,12129.0818,E,1,5,2.72,73.0,M,15.2,M,,*6C
$GPRMC,102700.368,A,2500.4559,N,12129.0814,E,2.39,358.43,140618,,,A*62
$GPGGA,102743.333,2500.4360,N,12129.0780,E,1,5,2.67,73.0,M,15.2,M,,*68
$GPRMC,102745.000,A,2500.4634,N,12129.0761,E,0.81,176.31,140618,,,A*61
$GPGGA,102825.324,2500.4611,N,12129.0818,E,1,5,2.62,73.2,M,15.2,M,,*6B
$GPRMC,102827.000,A,2500.4752,N,12129.0811,E,0.47,77.94,140618,,,A*56
$GPGGA,102914.317,2500.4803,N,12129.0903,E,1,5,2.57,72.9,M,15.2,M,,*62
$GPRMC,102916.000,A,2500.4768,N,12129.0869,E,0.29,49.43,140618,,,A*5C
$GPGGA,103007.000,2500.4761,N,12129.0802,E,1,5,2.51,70.1,M,15.2,M,,*6A
$GPRMC,103008.000,A,2500.4772,N,12129.0791,E,1.06,16.71,140618,,,A*5F
$GPGGA,103058.000,2500.4679,N,12129.0783,E,1,6,1.67,55.3,M,15.2,M,,*6E
$GPRMC,103059.000,A,2500.4744,N,12129.0845,E,2.95,4.03,140618,,,A*67
$GPGGA,103141.283,2500.4514,N,12129.0632,E,1,6,1.66,50.2,M,15.2,M,,*68
$GPRMC,103142.296,A,2500.4476,N,12129.0715,E,1.51,206.57,140618,,,A*63
$GPGGA,103226.282,2500.4101,N,12129.0743,E,1,5,2.38,50.9,M,15.2,M,,*6C
$GPRMC,103228.000,A,2500.4482,N,12129.0688,E,1.30,14.31,140618,,,A*59
$GPGGA,103318.000,2500.4758,N,12129.0781,E,1,5,1.68,51.8,M,15.2,M,,*6A
$GPRMC,103319.000,A,2500.4760,N,12129.0828,E,1.39,213.62,140618,,,A*6B
$GPGGA,103404.249,2500.4726,N,12129.0727,E,1,4,3.96,50.1,M,15.2,M,,*60
$GPRMC,103405.249,A,2500.4726,N,12129.0734,E,13.06,72.49,140618,,,A*6D
$GPGGA,103447.000,2500.4708,N,12129.0770,E,1,6,1.61,49.1,M,15.2,M,,*66
$GPRMC,103448.000,A,2500.4660,N,12129.0758,E,0.58,17.09,140618,,,A*5C
$GPGGA,103528.000,2500.4446,N,12129.0760,E,1,6,1.47,52.3,M,15.2,M,,*6A
$GPRMC,103529.000,A,2500.4424,N,12129.0755,E,1.32,198.62,140618,,,A*63
$GPGGA,103608.162,2500.4666,N,12129.0706,E,1,6,1.58,52.1,M,15.2,M,,*62
$GPRMC,103609.159,A,2500.4742,N,12129.0693,E,1.05,206.49,140618,,,A*6E
$GPGGA,103656.234,2500.4695,N,12129.0679,E,1,5,3.09,52.0,M,15.2,M,,*68
$GPRMC,103657.234,A,2500.4666,N,12129.0700,E,5.26,87.51,140618,,,A*56
$GPGGA,103740.178,2500.4729,N,12129.0807,E,1,6,1.56,52.1,M,15.2,M,,*6E
$GPRMC,103741.205,A,2500.4668,N,12129.0817,E,0.19,92.48,140618,,,A*50
$GPGGA,103819.273,2500.4540,N,12129.0843,E,1,6,1.55,52.1,M,15.2,M,,*6B
$GPRMC,103820.232,A,2500.4610,N,12129.0810,E,0.33,50.09,140618,,,A*57
$GPGGA,103859.074,2500.4801,N,12129.0647,E,1,6,1.54,52.1,M,15.2,M,,*69
$GPRMC,103900.079,A,2500.4816,N,12129.0665,E,0.81,11.95,140618,,,A*54
$GPGGA,103939.189,2500.4726,N,12129.0793,E,1,6,1.53,52.2,M,15.2,M,,*6B
$GPRMC,103940.199,A,2500.4697,N,12129.0784,E,1.14,322.17,140618,,,A*62
$GPGGA,104026.197,2500.4660,N,12129.0767,E,1,5,3.10,51.8,M,15.2,M,,*63
$GPRMC,104027.197,A,2500.4765,N,12129.0679,E,1.03,343.27,140618,,,A*6E
$GPGGA,104111.188,2500.4682,N,12129.0828,E,1,6,1.51,62.5,M,15.2,M,,*69
$GPRMC,104113.000,A,2500.4734,N,12129.0823,E,1.31,36.53,140618,,,A*51
$GPGGA,104214.164,2500.4788,N,12129.0483,E,1,6,2.57,38.2,M,15.2,M,,*66
$GPRMC,104216.000,A,2500.4769,N,12129.0468,E,0.38,147.64,140618,,,A*67
$GPGGA,104317.000,2500.4756,N,12129.0602,E,1,6,2.59,43.2,M,15.2,M,,*6D
$GPRMC,104318.000,A,2500.4749,N,12129.0583,E,1.10,355.41,140618,,,A*63
$GPGGA,104415.000,2500.4757,N,12129.0839,E,1,6,1.46,54.0,M,15.2,M,,*66
$GPRMC,104416.000,A,2500.4775,N,12129.0827,E,2.03,26.10,140618,,,A*54
$GPGGA,104502.131,2500.4377,N,12129.0942,E,1,5,2.82,44.6,M,15.2,M,,*66
$GPRMC,104504.000,A,2500.4820,N,12129.0524,E,1.23,331.41,140618,,,A*67
$GPGGA,104550.139,2500.4740,N,12129.0869,E,1,6,1.44,45.6,M,15.2,M,,*6A
$GPRMC,104552.000,A,2500.4740,N,12129.0869,E,0.19,347.47,140618,,,A*66
$GPGGA,104638.130,2500.4549,N,12129.0768,E,1,4,3.33,50.2,M,15.2,M,,*6B
$GPRMC,104639.130,A,2500.4734,N,12129.0565,E,14.88,92.64,140618,,,A*6F
$GPGGA,104729.122,2500.4723,N,12129.0863,E,1,4,3.32,50.8,M,15.2,M,,*68
$GPRMC,104730.122,A,2500.4719,N,12129.0850,E,1.70,47.43,140618,,,A*5E
$GPGGA,104818.097,2500.4697,N,12129.0796,E,1,4,3.32,49.7,M,15.2,M,,*66
$GPRMC,104819.097,A,2500.4651,N,12129.0863,E,8.14,268.82,140618,,,A*61
$GPGGA,104901.000,2500.4587,N,12129.0892,E,1,5,2.89,50.5,M,15.2,M,,*62
$GPRMC,104902.000,A,2500.4598,N,12129.0901,E,3.45,259.91,140618,,,A*68
$GPGGA,104946.096,2500.4690,N,12129.0980,E,1,4,3.32,51.2,M,15.2,M,,*6F
$GPRMC,104947.096,A,2500.4688,N,12129.0925,E,5.47,268.53,140618,,,A*6A
$GPGGA,105028.000,2500.4792,N,12129.0806,E,1,5,2.92,52.1,M,15.2,M,,*66
$GPRMC,105029.000,A,2500.4784,N,12129.0817,E,2.04,277.83,140618,,,A*6B
$GPGGA,110003.000,2500.4731,N,12129.0214,E,1,4,4.01,-29.2,M,15.2,M,,*44
$GPRMC,110004.000,A,2500.4727,N,12129.0221,E,0.64,91.84,140618,,,A*5F
$GPGGA,110110.000,2500.4732,N,12129.0521,E,1,4,4.12,43.7,M,15.2,M,,*63
$GPRMC,110111.000,A,2500.4727,N,12129.0641,E,0.10,74.89,140618,,,A*5D
$GPGGA,110144.951,2500.4702,N,12129.0273,E,1,4,4.17,-33.2,M,15.2,M,,*46
$GPRMC,110145.951,A,2500.4730,N,12129.0151,E,8.45,272.95,140618,,,A*60
$GPGGA,110301.000,2500.4715,N,12129.0453,E,1,4,4.30,5.8,M,15.2,M,,*5D
$GPRMC,110302.000,A,2500.4718,N,12129.0350,E,7.26,270.69,140618,,,A*6E
$GPGGA,110418.000,2500.4678,N,12129.1056,E,1,5,1.47,122.9,M,15.2,M,,*59
$GPRMC,110419.000,A,2500.4675,N,12129.1041,E,0.54,158.38,140618,,,A*64
$GPGGA,110534.000,2500.4656,N,12129.1021,E,1,4,4.58,107.3,M,15.2,M,,*5D
$GPRMC,110535.000,A,2500.4655,N,12129.1042,E,6.88,100.43,140618,,,A*6C
$GPGGA,110656.000,2500.4649,N,12129.1090,E,1,5,1.44,131.1,M,15.2,M,,*50
$GPRMC,110657.000,A,2500.4711,N,12129.0422,E,0.72,285.71,140618,,,A*65
$GPGGA,112353.000,2500.4632,N,12129.0938,E,1,5,1.24,76.4,M,15.2,M,,*65
$GPRMC,112354.000,A,2500.4632,N,12129.0932,E,0.61,111.32,140618,,,A*66
$GPGGA,112517.000,2500.4474,N,12129.2035,E,1,5,1.23,174.7,M,15.2,M,,*52
$GPRMC,112518.000,A,2500.4481,N,12129.2055,E,2.98,277.48,140618,,,A*62
$GPGGA,112840.000,2500.4808,N,12129.0000,E,1,5,3.29,0.4,M,15.2,M,,*57
$GPRMC,112841.000,A,2500.4809,N,12129.0006,E,0.85,91.67,140618,,,A*52
$GPGGA,113004.000,2500.4595,N,12129.1212,E,1,6,1.23,124.1,M,15.2,M,,*5E
$GPRMC,113005.000,A,2500.4652,N,12129.0863,E,2.18,78.62,140618,,,A*54
$GPGGA,113052.000,2500.4626,N,12129.0801,E,1,6,2.42,78.6,M,15.2,M,,*64
$GPRMC,113054.000,A,2500.4636,N,12129.0843,E,4.35,96.53,140618,,,A*5B
$GPGGA,113134.000,2500.4696,N,12129.0821,E,1,4,3.35,79.3,M,15.2,M,,*6B
$GPRMC,113135.000,A,2500.4639,N,12129.0814,E,10.86,103.75,140618,,,A*54
$GPGGA,113220.629,2500.4579,N,12129.1056,E,1,5,3.20,79.2,M,15.2,M,,*6F
$GPRMC,113222.000,A,2500.4590,N,12129.0978,E,1.29,275.59,140618,,,A*63
$GPGGA,113319.620,2500.4638,N,12129.0885,E,1,6,2.40,79.5,M,15.2,M,,*6F
$GPRMC,113321.000,A,2500.4677,N,12129.0648,E,1.14,43.51,140618,,,A*56
$GPGGA,113405.000,2500.4696,N,12129.0686,E,1,4,3.31,57.1,M,15.2,M,,*65
$GPRMC,113406.000,A,2500.4687,N,12129.0715,E,16.26,108.54,140618,,,A*5E
$GPGGA,113448.577,2500.4684,N,12129.1110,E,1,6,1.10,62.4,M,15.2,M,,*63
$GPRMC,113452.000,A,2500.4694,N,12129.0794,E,1.58,267.59,140618,,,A*6C
$GPGGA,113539.000,2500.4640,N,12129.0856,E,1,5,1.45,62.8,M,15.2,M,,*6C
$GPRMC,113540.000,A,2500.4666,N,12129.0870,E,0.22,147.04,140618,,,A*63
$GPGGA,113625.585,2500.4636,N,12129.0814,E,1,5,1.45,62.4,M,15.2,M,,*61
$GPRMC,113627.000,A,2500.4605,N,12129.0839,E,0.23,215.50,140618,,,A*6D
$GPGGA,113710.592,2500.4629,N,12129.0839,E,1,6,1.09,62.4,M,15.2,M,,*6A
$GPRMC,113711.591,A,2500.4615,N,12129.0804,E,0.70,311.25,140618,,,A*6A
$GPGGA,113754.593,2500.4603,N,12129.0860,E,1,6,1.08,62.4,M,15.2,M,,*6E
$GPRMC,113755.585,A,2500.4622,N,12129.0835,E,0.40,67.74,140618,,,A*5C
$GPGGA,113833.576,2500.4582,N,12129.0798,E,1,6,1.08,62.7,M,15.2,M,,*6A
$GPRMC,113834.576,A,2500.4568,N,12129.0787,E,0.27,196.16,140618,,,A*69
$GPGGA,113915.568,2500.4597,N,12129.0788,E,1,6,1.08,62.7,M,15.2,M,,*65
$GPRMC,113916.550,A,2500.4623,N,12129.0815,E,0.26,191.75,140618,,,A*67
$GPGGA,114000.594,2500.4606,N,12129.0867,E,1,6,1.07,62.7,M,15.2,M,,*66
$GPRMC,114001.563,A,2500.4668,N,12129.0870,E,0.73,188.85,140618,,,A*64
$GPGGA,114041.559,2500.4608,N,12129.0847,E,1,7,1.02,62.5,M,15.2,M,,*68
$GPRMC,114042.557,A,2500.4632,N,12129.0867,E,1.11,61.39,140618,,,A*59
$GPGGA,114125.547,2500.4648,N,12129.0838,E,1,6,1.24,62.6,M,15.2,M,,*6E
$GPRMC,114127.000,A,2500.4640,N,12129.0846,E,0.93,41.48,140618,,,A*55
$GPGGA,114207.539,2500.4633,N,12129.0815,E,1,6,1.23,62.7,M,15.2,M,,*61
$GPRMC,114209.000,A,2500.4623,N,12129.0817,E,0.23,17.98,140618,,,A*5E
$GPGGA,114255.532,2500.4632,N,12129.0980,E,1,6,1.23,62.6,M,15.2,M,,*60
$GPRMC,114257.000,A,2500.4638,N,12129.0885,E,0.28,115.47,140618,,,A*6E
$GPGGA,114343.523,2500.4631,N,12129.0841,E,1,6,1.06,62.7,M,15.2,M,,*6F
$GPRMC,114345.000,A,2500.4636,N,12129.0849,E,0.13,11.79,140618,,,A*52
$GPGGA,114425.504,2500.4672,N,12129.0962,E,1,5,1.41,62.4,M,15.2,M,,*69
$GPRMC,114426.506,A,2500.4651,N,12129.0926,E,0.95,330.15,140618,,,A*6E
$GPGGA,114507.507,2500.4664,N,12129.0782,E,1,5,1.40,62.7,M,15.2,M,,*6E
$GPRMC,114509.000,A,2500.4606,N,12129.0828,E,1.11,8.94,140618,,,A*60
$GPGGA,114548.463,2500.4797,N,12129.0881,E,1,7,1.00,28.1,M,15.2,M,,*69
$GPRMC,114549.485,A,2500.4669,N,12129.0869,E,0.80,137.63,140618,,,A*6D
$GPGGA,114631.493,2500.4582,N,12129.0807,E,1,6,1.21,75.2,M,15.2,M,,*6A
$GPRMC,114633.000,A,2500.4595,N,12129.0797,E,0.56,319.02,140618,,,A*66
$GPGGA,114712.477,2500.4612,N,12129.0802,E,1,6,1.05,70.0,M,15.2,M,,*6E
$GPRMC,114713.480,A,2500.4614,N,12129.0788,E,1.06,36.44,140618,,,A*55
$GPGGA,114755.478,2500.4622,N,12129.0819,E,1,6,1.21,60.5,M,15.2,M,,*69
$GPRMC,114757.000,A,2500.4598,N,12129.0827,E,0.64,252.50,140618,,,A*64
$GPGGA,114837.465,2500.4639,N,12129.0853,E,1,7,0.99,57.4,M,15.2,M,,*6C
$GPRMC,114838.466,A,2500.4630,N,12129.0851,E,0.83,238.16,140618,,,A*61
$GPGGA,114921.462,2500.4600,N,12129.0737,E,1,6,1.20,60.0,M,15.2,M,,*68
$GPRMC,114923.000,A,2500.4597,N,12129.0741,E,0.78,259.12,140618,,,A*69
$GPGGA,115000.438,2500.4602,N,12129.0728,E,1,6,1.03,46.7,M,15.2,M,,*62
$GPRMC,115002.000,A,2500.4606,N,12129.0734,E,0.60,166.06,140618,,,A*68
$GPGGA,115041.431,2500.4618,N,12129.0641,E,1,7,0.98,56.6,M,15.2,M,,*69
$GPRMC,115043.000,A,2500.4662,N,12129.0611,E,1.57,352.47,140618,,,A*6C
$GPGGA,115135.000,2500.4726,N,12129.0611,E,1,6,2.24,24.9,M,15.2,M,,*6A
$GPRMC,115136.000,A,2500.4731,N,12129.0605,E,3.04,106.44,140618,,,A*69
$GPGGA,115212.415,2500.4728,N,12129.0484,E,1,6,2.24,27.6,M,15.2,M,,*60
$GPRMC,115214.000,A,2500.4579,N,12129.0772,E,0.83,304.16,140618,,,A*6E
$GPGGA,115251.408,2500.4679,N,12129.0610,E,1,6,1.02,27.8,M,15.2,M,,*68
$GPRMC,115254.000,A,2500.4584,N,12129.0818,E,0.19,104.03,140618,,,A*6E
$GPGGA,115337.401,2500.4709,N,12129.0706,E,1,5,3.16,43.4,M,15.2,M,,*6A
$GPRMC,115338.401,A,2500.4707,N,12129.0677,E,3.56,105.00,140618,,,A*64
$GPGGA,115425.409,2500.4666,N,12129.0613,E,1,6,2.22,43.4,M,15.2,M,,*6E
$GPRMC,115427.000,A,2500.4645,N,12129.0599,E,0.41,174.71,140618,,,A*69
$GPGGA,115513.400,2500.4683,N,12129.0696,E,1,5,2.23,44.5,M,15.2,M,,*61
$GPRMC,115515.000,A,2500.4699,N,12129.0665,E,7.38,289.05,140618,,,A*63
$GPGGA,115602.392,2500.4611,N,12129.0736,E,1,5,3.26,48.0,M,15.2,M,,*63
$GPRMC,115605.000,A,2500.4645,N,12129.0783,E,1.29,283.05,140618,,,A*65
$GPGGA,115643.367,2500.4707,N,12129.0512,E,1,5,2.22,48.6,M,15.2,M,,*6D
$GPRMC,115646.000,A,2500.4675,N,12129.0638,E,2.19,70.74,140618,,,A*58
$GPGGA,115725.359,2500.4742,N,12129.0427,E,1,5,3.33,15.8,M,15.2,M,,*60
$GPRMC,115726.359,A,2500.4748,N,12129.0390,E,1.69,101.80,140618,,,A*60
$GPGGA,115807.368,2500.4577,N,12129.0725,E,1,5,3.36,54.1,M,15.2,M,,*61
$GPRMC,115808.368,A,2500.4563,N,12129.0791,E,3.53,111.67,140618,,,A*6C
$GPGGA,115851.361,2500.4517,N,12129.0963,E,1,5,3.39,54.3,M,15.2,M,,*6C
$GPRMC,115852.361,A,2500.4505,N,12129.0985,E,3.32,113.41,140618,,,A*60
$GPGGA,115931.337,2500.4680,N,12129.0687,E,1,6,2.20,54.2,M,15.2,M,,*6B
$GPRMC,115933.000,A,2500.4704,N,12129.0621,E,1.07,314.13,140618,,,A*66
$GPGGA,120019.346,2500.4666,N,12129.0844,E,1,5,3.46,54.2,M,15.2,M,,*63
$GPRMC,120020.346,A,2500.4661,N,12129.0706,E,2.20,299.54,140618,,,A*6D
$GPGGA,120104.337,2500.4512,N,12129.1119,E,1,5,3.50,54.3,M,15.2,M,,*6E
$GPRMC,120105.337,A,2500.4503,N,12129.1104,E,6.41,109.36,140618,,,A*62
$GPGGA,120146.000,2500.4708,N,12129.0694,E,1,6,2.19,30.6,M,15.2,M,,*6D
$GPRMC,120147.000,A,2500.4725,N,12129.0622,E,0.46,239.70,140618,,,A*64
$GPGGA,120239.306,2500.4671,N,12129.0615,E,1,5,3.59,20.0,M,15.2,M,,*64
$GPRMC,120240.306,A,2500.4689,N,12129.0535,E,2.48,107.38,140618,,,A*69
$GPGGA,120320.296,2500.4830,N,12129.0130,E,1,5,3.63,20.0,M,15.2,M,,*67
$GPRMC,120321.296,A,2500.4881,N,12128.9953,E,0.65,267.57,140618,,,A*64
$GPGGA,120411.305,2500.4823,N,12129.0371,E,1,5,3.68,20.0,M,15.2,M,,*67
$GPRMC,120412.305,A,2500.4909,N,12129.0060,E,0.64,282.93,140618,,,A*6A
$GPGGA,120456.280,2500.4872,N,12129.0155,E,1,5,3.72,19.9,M,15.2,M,,*60
$GPRMC,120457.280,A,2500.4857,N,12129.0194,E,3.36,114.15,140618,,,A*61
$GPGGA,120550.288,2500.4704,N,12129.0696,E,1,5,3.78,20.0,M,15.2,M,,*60
$GPRMC,120551.288,A,2500.4698,N,12129.0545,E,2.71,297.87,140618,,,A*6A
$GPGGA,120640.278,2500.4739,N,12129.0499,E,1,4,4.31,20.2,M,15.2,M,,*67
$GPRMC,120641.278,A,2500.4741,N,12129.0499,E,7.20,300.84,140618,,,A*6F
$GPGGA,120752.253,2500.4727,N,12129.0618,E,1,5,3.90,21.6,M,15.2,M,,*60
$GPRMC,120753.253,A,2500.4744,N,12129.0542,E,2.97,302.22,140618,,,A*61
$GPGGA,120928.240,2500.4757,N,12129.0580,E,1,5,4.01,21.8,M,15.2,M,,*65
$GPRMC,120929.240,A,2500.4764,N,12129.0552,E,2.14,300.48,140618,,,A*66
$GPGGA,121028.223,2500.4729,N,12129.0490,E,1,5,4.08,19.6,M,15.2,M,,*6D
$GPRMC,121029.223,A,2500.4703,N,12129.0551,E,3.15,293.71,140618,,,A*68
$GPGGA,121109.000,2500.4419,N,12129.0902,E,1,6,2.17,92.1,M,15.2,M,,*65
$GPRMC,121110.000,A,2500.4441,N,12129.0848,E,1.03,327.46,140618,,,A*6F
$GPGGA,121150.205,2500.4545,N,12129.0405,E,1,5,4.17,83.8,M,15.2,M,,*60
$GPRMC,121151.205,A,2500.4499,N,12129.0839,E,1.30,269.48,140618,,,A*6B
$GPGGA,121232.214,2500.4617,N,12129.0598,E,1,5,4.22,83.8,M,15.2,M,,*60
$GPRMC,121233.214,A,2500.4607,N,12129.0660,E,2.41,298.06,140618,,,A*6A
$GPGGA,121320.207,2500.4478,N,12129.0799,E,1,5,4.28,83.8,M,15.2,M,,*62
$GPRMC,121321.207,A,2500.4476,N,12129.0921,E,1.38,307.20,140618,,,A*6A
$GPGGA,121403.198,2500.4490,N,12129.0876,E,1,5,4.33,83.8,M,15.2,M,,*63
$GPRMC,121404.198,A,2500.4497,N,12129.0843,E,2.60,292.00,140618,,,A*64
$GPGGA,121444.174,2500.4410,N,12129.0730,E,1,5,4.38,83.7,M,15.2,M,,*63
$GPRMC,121445.174,A,2500.4318,N,12129.1177,E,0.45,161.09,140618,,,A*6F
$GPGGA,121528.183,2500.4424,N,12129.1044,E,1,5,4.43,83.8,M,15.2,M,,*61
$GPRMC,121529.183,A,2500.4417,N,12129.1078,E,1.40,142.80,140618,,,A*6E
$GPGGA,121617.159,2500.4311,N,12129.1272,E,1,5,4.49,83.7,M,15.2,M,,*6A
$GPRMC,121618.159,A,2500.4302,N,12129.1296,E,2.77,311.24,140618,,,A*64
$GPGGA,121659.150,2500.4518,N,12129.0812,E,1,4,4.73,62.7,M,15.2,M,,*6C
$GPRMC,121805.150,A,2500.4408,N,12129.1101,E,0.52,161.93,140618,,,A*63
$GPGGA,121933.131,2500.4469,N,12129.0961,E,1,5,4.72,81.2,M,15.2,M,,*62
$GPRMC,121934.131,A,2500.4381,N,12129.1117,E,4.23,302.27,140618,,,A*6C
$GPGGA,122128.116,2500.4691,N,12129.0613,E,1,5,4.85,72.8,M,15.2,M,,*67
$GPRMC,122130.116,A,2500.4675,N,12129.0646,E,4.61,119.80,140618,,,A*69
$GPGGA,122333.000,2500.4358,N,12129.1094,E,1,6,1.28,90.2,M,15.2,M,,*66
$GPRMC,122334.000,A,2500.4353,N,12129.1103,E,2.63,122.62,140618,,,A*6F
$GPGGA,122422.000,2500.2747,N,12129.3513,E,1,4,5.78,99.6,M,15.2,M,,*6B
$GPRMC,122423.000,A,2500.2746,N,12129.3511,E,9.54,121.14,140618,,,A*60
$GPGGA,122531.000,2500.4262,N,12129.1210,E,1,4,5.99,92.0,M,15.2,M,,*68
$GPRMC,122532.000,A,2500.4293,N,12129.1187,E,6.80,128.25,140618,,,A*6E
$GPGGA,122637.000,2500.4281,N,12129.1255,E,1,4,6.22,93.8,M,15.2,M,,*6B
$GPRMC,122638.000,A,2500.4357,N,12129.1119,E,2.89,301.33,140618,,,A*6A
$GPGGA,122740.000,2500.3760,N,12129.2072,E,1,6,2.22,92.3,M,15.2,M,,*6F
$GPRMC,122742.000,A,2500.3704,N,12129.2236,E,0.63,95.59,140618,,,A*5A
$GPGGA,122831.000,2500.4547,N,12129.0711,E,1,5,5.22,91.9,M,15.2,M,,*6B
$GPRMC,122832.000,A,2500.4567,N,12129.0698,E,13.66,118.07,140618,,,A*58
$GPGGA,123012.000,2500.4391,N,12129.1089,E,1,5,1.26,88.4,M,15.2,M,,*6C
$GPRMC,123018.000,A,2500.4387,N,12129.1091,E,0.67,9.83,140618,,,A*61
$GPGGA,123145.000,2500.4289,N,12129.1325,E,1,6,1.80,101.2,M,15.2,M,,*5B
$GPRMC,123146.000,A,2500.4350,N,12129.1176,E,1.46,130.97,140618,,,A*65
$GPGGA,123329.000,2500.4746,N,12129.0507,E,1,5,2.67,14.9,M,15.2,M,,*65
$GPRMC,123330.000,A,2500.4752,N,12129.0512,E,1.08,284.07,140618,,,A*68
$GPGGA,123423.000,2500.4587,N,12129.0756,E,1,4,7.97,47.5,M,15.2,M,,*60
$GPRMC,123424.000,A,2500.4639,N,12129.0705,E,1.97,330.00,140618,,,A*6D
$GPGGA,123513.000,2500.4869,N,12129.0464,E,1,5,2.62,6.1,M,15.2,M,,*52
$GPRMC,123514.000,A,2500.4846,N,12129.0490,E,1.70,63.17,140618,,,A*5C
$GPGGA,123623.000,2500.4673,N,12129.0594,E,1,5,2.59,-14.2,M,15.2,M,,*4C
$GPRMC,123624.000,A,2500.4671,N,12129.0591,E,1.65,115.68,140618,,,A*6A
$GPGGA,123719.000,2500.4680,N,12129.0598,E,1,5,2.97,48.9,M,15.2,M,,*69
$GPRMC,123720.000,A,2500.4676,N,12129.0599,E,0.46,37.36,140618,,,A*5A
$GPGGA,123819.000,2500.4654,N,12129.0677,E,1,5,2.54,39.5,M,15.2,M,,*68
$GPRMC,123820.000,A,2500.4748,N,12129.0573,E,0.60,338.47,140618,,,A*63
$GPGGA,123853.916,2500.4575,N,12129.0703,E,1,5,2.52,21.5,M,15.2,M,,*65
$GPRMC,123855.000,A,2500.4611,N,12129.0692,E,0.61,55.12,140618,,,A*59
$GPGGA,123937.909,2500.4359,N,12129.1064,E,1,6,1.27,22.3,M,15.2,M,,*60
$GPRMC,123939.909,A,2500.4105,N,12129.1259,E,0.45,350.71,140618,,,A*67
$GPGGA,124025.901,2500.4636,N,12129.0644,E,1,5,2.48,22.2,M,15.2,M,,*64
$GPRMC,124027.000,A,2500.4762,N,12129.0529,E,0.93,45.05,140618,,,A*5F
$GPGGA,124109.888,2500.4885,N,12129.0414,E,1,5,2.46,22.2,M,15.2,M,,*64
$GPRMC,124110.888,A,2500.4894,N,12129.0427,E,0.74,352.32,140618,,,A*63
$GPGGA,124148.894,2500.4913,N,12129.0344,E,1,6,1.74,22.2,M,15.2,M,,*61
$GPRMC,124149.898,A,2500.4874,N,12129.0384,E,1.86,141.81,140618,,,A*6A
$GPGGA,124230.873,2500.4871,N,12129.0360,E,1,6,1.74,16.1,M,15.2,M,,*63
$GPRMC,124231.894,A,2500.4830,N,12129.0328,E,1.51,319.58,140618,,,A*6D
$GPGGA,124311.882,2500.4600,N,12129.0708,E,1,6,1.75,22.5,M,15.2,M,,*6F
$GPRMC,124312.881,A,2500.4605,N,12129.0694,E,1.21,317.58,140618,,,A*6A
$GPGGA,124352.870,2500.4748,N,12129.0533,E,1,5,2.38,22.4,M,15.2,M,,*6A
$GPRMC,124353.873,A,2500.4683,N,12129.0571,E,0.80,164.71,140618,,,A*63
$GPGGA,124433.887,2500.4549,N,12129.0666,E,1,6,1.76,22.2,M,15.2,M,,*6E
$GPRMC,124434.886,A,2500.4552,N,12129.0662,E,1.03,304.35,140618,,,A*6F
$GPGGA,124514.858,2500.4718,N,12129.0636,E,1,6,1.76,22.2,M,15.2,M,,*6B
$GPRMC,124515.865,A,2500.4700,N,12129.0586,E,2.08,293.28,140618,,,A*67
$GPGGA,124606.857,2500.4710,N,12129.0530,E,1,6,1.77,20.1,M,15.2,M,,*69
$GPRMC,124608.000,A,2500.4711,N,12129.0545,E,0.95,119.47,140618,,,A*62
$GPGGA,124649.832,2500.4545,N,12129.0833,E,1,5,2.30,22.5,M,15.2,M,,*68
$GPRMC,124651.000,A,2500.4647,N,12129.0712,E,1.43,309.67,140618,,,A*67
$GPGGA,124734.000,2500.4689,N,12129.0573,E,1,6,1.77,24.0,M,15.2,M,,*60
$GPRMC,124735.000,A,2500.4623,N,12129.0609,E,0.60,161.05,140618,,,A*65
$GPGGA,124813.000,2500.4664,N,12129.0666,E,1,5,1.95,49.8,M,15.2,M,,*62
$GPRMC,124814.000,A,2500.4611,N,12129.0702,E,0.45,165.84,140618,,,A*68
$GPGGA,124848.810,2500.4584,N,12129.0644,E,1,5,1.95,49.4,M,15.2,M,,*64
$GPRMC,124850.000,A,2500.4568,N,12129.0695,E,1.47,296.98,140618,,,A*6B
$GPGGA,124928.000,2500.4749,N,12129.0508,E,1,6,1.79,50.6,M,15.2,M,,*69
$GPRMC,124929.000,A,2500.4711,N,12129.0567,E,1.55,123.54,140618,,,A*68
$GPGGA,125013.796,2500.4553,N,12129.0703,E,1,5,1.96,50.3,M,15.2,M,,*66
$GPRMC,125014.796,A,2500.4669,N,12129.0604,E,1.07,327.38,140618,,,A*65
$GPGGA,125055.804,2500.4344,N,12129.0991,E,1,5,1.96,49.9,M,15.2,M,,*67
$GPRMC,125056.804,A,2500.4638,N,12129.0706,E,1.12,318.80,140618,,,A*6B
$GPGGA,125137.797,2500.4136,N,12129.1047,E,1,5,1.96,48.9,M,15.2,M,,*62
$GPRMC,125138.797,A,2500.4545,N,12129.0642,E,2.27,139.79,140618,,,A*6D
$GPGGA,125219.789,2500.4663,N,12129.0525,E,1,6,1.80,50.5,M,15.2,M,,*64
$GPRMC,125221.000,A,2500.4617,N,12129.0617,E,1.07,277.79,140618,,,A*63
$GPGGA,125301.781,2500.4740,N,12129.0501,E,1,6,1.80,49.9,M,15.2,M,,*66
$GPRMC,125303.000,A,2500.4730,N,12129.0502,E,1.02,297.65,140618,,,A*67
$GPGGA,125341.739,2500.4771,N,12129.0565,E,1,6,1.80,58.8,M,15.2,M,,*60
$GPRMC,125342.738,A,2500.4809,N,12129.0539,E,1.30,280.03,140618,,,A*64
$GPGGA,125425.767,2500.4534,N,12129.0704,E,1,6,1.81,52.1,M,15.2,M,,*6A
$GPRMC,125426.767,A,2500.4628,N,12129.0615,E,0.88,299.97,140618,,,A*6C
$GPGGA,125507.759,2500.4020,N,12129.1179,E,1,6,1.81,31.7,M,15.2,M,,*68
$GPRMC,125508.759,A,2500.4741,N,12129.0554,E,0.57,115.02,140618,,,A*6D
$GPGGA,125552.000,2500.4594,N,12129.0684,E,1,6,1.41,58.9,M,15.2,M,,*60
$GPRMC,125553.000,A,2500.4668,N,12129.0646,E,1.20,296.33,140618,,,A*69
$GPGGA,125637.727,2500.4679,N,12129.0606,E,1,6,1.81,58.8,M,15.2,M,,*65
$GPRMC,125639.000,A,2500.4728,N,12129.0627,E,1.24,270.25,140618,,,A*6F
$GPGGA,125731.000,2500.4690,N,12129.0558,E,1,6,1.81,33.0,M,15.2,M,,*6A
$GPRMC,125732.000,A,2500.4696,N,12129.0560,E,0.77,136.57,140618,,,A*62
$GPGGA,125820.000,2500.4793,N,12129.0506,E,1,6,1.82,31.2,M,15.2,M,,*6F
$GPRMC,125821.000,A,2500.4756,N,12129.0528,E,0.74,322.78,140618,,,A*67
$GPGGA,125910.000,2500.4748,N,12129.0594,E,1,5,1.97,33.2,M,15.2,M,,*65
$GPRMC,125911.000,A,2500.4786,N,12129.0594,E,2.16,170.18,140618,,,A*6A
$GPGGA,130003.692,2500.4413,N,12129.0702,E,1,5,2.01,36.0,M,15.2,M,,*6C
$GPRMC,130004.692,A,2500.4559,N,12129.0695,E,2.37,333.39,140618,,,A*69
$GPGGA,130046.000,2500.4744,N,12129.0566,E,1,4,2.23,37.4,M,15.2,M,,*65
$GPRMC,130047.000,A,2500.4752,N,12129.0564,E,0.99,284.84,140618,,,A*6A
$GPGGA,130133.000,2500.4561,N,12129.0513,E,1,4,2.66,38.9,M,15.2,M,,*62
$GPRMC,130134.000,A,2500.4634,N,12129.0476,E,2.48,326.39,140618,,,A*6D
$GPGGA,130215.000,2500.4460,N,12129.0632,E,1,5,2.13,32.9,M,15.2,M,,*6C
$GPRMC,130216.000,A,2500.4466,N,12129.0643,E,1.69,308.17,140618,,,A*6F
$GPGGA,130311.000,2500.4494,N,12129.0629,E,1,5,2.13,38.7,M,15.2,M,,*6C
$GPRMC,130312.000,A,2500.4517,N,12129.0617,E,3.51,320.10,140618,,,A*68
$GPGGA,130527.000,2500.4851,N,12129.0583,E,1,5,2.97,38.7,M,15.2,M,,*65
$GPRMC,130528.000,A,2500.4852,N,12129.0586,E,1.19,334.69,140618,,,A*65
$GPGGA,130640.641,2500.4613,N,12129.0894,E,1,5,1.77,110.1,M,15.2,M,,*57
$GPRMC,130653.641,A,2500.4572,N,12129.0820,E,2.03,300.81,140618,,,A*6E
$GPGGA,130734.000,2500.4756,N,12129.0620,E,1,6,1.82,85.2,M,15.2,M,,*60
$GPRMC,130735.000,A,2500.4729,N,12129.0681,E,0.65,314.05,140618,,,A*6E
$GPGGA,130822.000,2500.4669,N,12129.0811,E,1,5,2.06,93.5,M,15.2,M,,*65
$GPRMC,130823.000,A,2500.4673,N,12129.0822,E,3.01,309.08,140618,,,A*6F
$GPGGA,130907.594,2500.4439,N,12129.0857,E,1,5,2.06,93.4,M,15.2,M,,*6F
$GPRMC,130908.594,A,2500.4566,N,12129.0845,E,1.38,77.51,140618,,,A*57
$GPGGA,130953.000,2500.4616,N,12129.0814,E,1,4,2.73,94.0,M,15.2,M,,*6E
$GPRMC,130954.000,A,2500.4627,N,12129.0856,E,1.68,116.93,140618,,,A*6F
$GPGGA,131033.000,2500.4739,N,12129.0841,E,1,5,2.06,92.8,M,15.2,M,,*61
$GPRMC,131034.000,A,2500.4741,N,12129.0806,E,1.21,323.80,140618,,,A*6E
$GPGGA,131114.570,2500.4613,N,12129.0626,E,1,5,2.06,93.3,M,15.2,M,,*6B
$GPRMC,131116.000,A,2500.4624,N,12129.0669,E,0.19,335.60,140618,,,A*69
$GPGGA,131201.563,2500.4531,N,12129.0934,E,1,5,2.07,93.5,M,15.2,M,,*66
$GPRMC,131203.000,A,2500.4710,N,12129.0806,E,2.55,110.15,140618,,,A*62
$GPGGA,131249.570,2500.4693,N,12129.0819,E,1,6,1.81,92.7,M,15.2,M,,*60
$GPRMC,131251.000,A,2500.4665,N,12129.0778,E,0.80,55.43,140618,,,A*59
$GPGGA,131337.562,2500.4496,N,12129.1023,E,1,6,1.81,92.4,M,15.2,M,,*6F
$GPRMC,131338.562,A,2500.4768,N,12129.0796,E,1.97,276.67,140618,,,A*68
$GPGGA,131423.000,2500.4603,N,12129.0625,E,1,6,1.81,92.4,M,15.2,M,,*63
$GPRMC,131424.000,A,2500.4680,N,12129.0711,E,0.91,215.83,140618,,,A*63
$GPGGA,131505.000,2500.4546,N,12129.0690,E,1,4,2.71,92.7,M,15.2,M,,*67
$GPRMC,131506.000,A,2500.4548,N,12129.0746,E,6.56,265.32,140618,,,A*67
$GPGGA,131551.000,2500.4725,N,12129.0839,E,1,4,2.70,92.7,M,15.2,M,,*6D
$GPRMC,131552.000,A,2500.4761,N,12129.0840,E,1.55,325.09,140618,,,A*6F
$GPGGA,131634.000,2500.4454,N,12129.0395,E,1,5,1.81,93.5,M,15.2,M,,*6A
$GPRMC,131635.000,A,2500.4554,N,12129.0469,E,1.96,259.23,140618,,,A*63
$GPGGA,131715.000,2500.4639,N,12129.0784,E,1,4,2.68,93.2,M,15.2,M,,*67
$GPRMC,131716.000,A,2500.4726,N,12129.0778,E,1.69,190.60,140618,,,A*66
$GPGGA,131755.000,2500.4479,N,12129.0803,E,1,5,2.05,94.4,M,15.2,M,,*6E
$GPRMC,131756.000,A,2500.4560,N,12129.0832,E,4.60,271.79,140618,,,A*6B
$GPGGA,131844.000,2500.4679,N,12129.0828,E,1,5,2.07,92.7,M,15.2,M,,*6D
$GPRMC,131845.000,A,2500.4684,N,12129.0835,E,1.43,294.05,140618,,,A*6C
$GPGGA,131931.000,2500.4813,N,12129.1051,E,1,6,1.80,113.3,M,15.2,M,,*58
$GPRMC,131932.000,A,2500.4783,N,12129.1137,E,1.28,332.06,140618,,,A*62
$GPGGA,132012.000,2500.4587,N,12129.0963,E,1,4,2.63,115.8,M,15.2,M,,*5B
$GPRMC,132013.000,A,2500.4589,N,12129.0965,E,2.00,303.03,140618,,,A*63
$GPGGA,132058.000,2500.4656,N,12129.0949,E,1,4,2.62,114.9,M,15.2,M,,*53
$GPRMC,132059.000,A,2500.4623,N,12129.0959,E,1.82,331.84,140618,,,A*66
$GPGGA,132141.000,2500.4609,N,12129.0909,E,1,4,2.60,115.4,M,15.2,M,,*5A
$GPRMC,132142.000,A,2500.4750,N,12129.0957,E,2.12,324.48,140618,,,A*68
$GPGGA,132239.451,2500.4680,N,12129.0989,E,1,3,2.69,115.7,M,15.2,M,,*52
$GPRMC,132241.000,A,2500.4674,N,12129.0984,E,0.40,294.47,140618,,,A*61
$GPGGA,132326.456,2500.4505,N,12129.0957,E,1,3,2.65,115.7,M,15.2,M,,*5B
$GPRMC,132327.456,A,2500.4531,N,12129.0913,E,0.85,275.06,140618,,,A*68
$GPGGA,132414.448,2500.4632,N,12129.1032,E,1,5,2.01,115.6,M,15.2,M,,*5B
$GPRMC,132416.000,A,2500.4648,N,12129.0962,E,2.26,272.49,140618,,,A*66
$GPGGA,132623.000,2500.4731,N,12129.0669,E,1,5,1.84,78.3,M,15.2,M,,*6F
$GPRMC,132624.000,A,2500.4728,N,12129.0679,E,0.48,267.15,140618,,,A*60
$GPGGA,132845.000,2500.4719,N,12129.0741,E,1,5,1.99,71.0,M,15.2,M,,*66
$GPRMC,132846.000,A,2500.4718,N,12129.0740,E,0.16,69.71,140618,,,A*57
$GPGGA,133028.000,2500.4668,N,12129.0738,E,1,5,1.81,93.0,M,15.2,M,,*68
$GPRMC,133029.000,A,2500.4667,N,12129.0743,E,0.62,283.99,140618,,,A*6E
$GPGGA,133352.000,2500.4650,N,12129.1116,E,1,5,1.78,158.9,M,15.2,M,,*5F
$GPRMC,133353.000,A,2500.4649,N,12129.1109,E,0.23,282.93,140618,,,A*6B
$GPGGA,133551.000,2500.4566,N,12129.1253,E,1,6,1.43,161.3,M,15.2,M,,*55
$GPRMC,133552.000,A,2500.4571,N,12129.1218,E,1.18,278.95,140618,,,A*6D
$GPGGA,133637.000,2500.4412,N,12129.1774,E,1,4,2.58,155.8,M,15.2,M,,*53
$GPRMC,133638.000,A,2500.4404,N,12129.1795,E,1.50,317.50,140618,,,A*6C
$GPGGA,133741.000,2500.4539,N,12129.0714,E,1,5,1.36,148.2,M,15.2,M,,*50
$GPRMC,133744.000,A,2500.4604,N,12129.0774,E,0.54,232.23,140618,,,A*6D
$GPGGA,133835.000,2500.4672,N,12129.0998,E,1,5,1.72,144.4,M,15.2,M,,*50
$GPRMC,133836.000,A,2500.4706,N,12129.1009,E,2.43,20.88,140618,,,A*5C
$GPGGA,133921.000,2500.4571,N,12129.0998,E,1,4,1.77,145.3,M,15.2,M,,*56
$GPRMC,133931.000,A,2500.4649,N,12129.0861,E,1.31,17.50,140618,,,A*50
$GPGGA,134030.261,2500.4587,N,12129.1575,E,1,3,3.99,152.9,M,15.2,M,,*53
$GPRMC,134032.000,A,2500.4587,N,12129.1595,E,0.51,13.90,140618,,,A*54
$GPGGA,134143.000,2500.4644,N,12129.0891,E,1,4,1.72,128.9,M,15.2,M,,*54
$GPRMC,134144.000,A,2500.4639,N,12129.0880,E,0.22,212.54,140618,,,A*65
$GPGGA,134252.000,2500.4392,N,12129.0828,E,1,5,1.43,135.2,M,15.2,M,,*5F
$GPRMC,134253.000,A,2500.4477,N,12129.1809,E,2.13,63.62,140618,,,A*59
$GPGGA,134348.000,2500.4684,N,12129.0907,E,1,4,1.68,125.6,M,15.2,M,,*56
$GPRMC,134349.000,A,2500.4683,N,12129.0891,E,0.11,79.98,140618,,,A*54
$GPGGA,134439.000,2500.4683,N,12129.0987,E,1,5,1.44,127.7,M,15.2,M,,*54
$GPRMC,134440.000,A,2500.4695,N,12129.0873,E,1.02,25.90,140618,,,A*53
$GPGGA,134517.206,2500.4660,N,12129.0685,E,1,4,1.65,45.9,M,15.2,M,,*64
$GPRMC,134519.000,A,2500.4651,N,12129.0745,E,0.69,307.50,140618,,,A*6F
$GPGGA,134602.199,2500.4733,N,12129.0802,E,1,3,4.24,47.5,M,15.2,M,,*69
$GPRMC,134603.199,A,2500.4732,N,12129.0808,E,0.31,34.27,140618,,,A*5A
$GPGGA,134650.207,2500.4625,N,12129.0730,E,1,4,1.63,48.6,M,15.2,M,,*6F
$GPRMC,134652.000,A,2500.4683,N,12129.0661,E,2.52,113.28,140618,,,A*69
$GPGGA,134738.198,2500.4812,N,12129.0587,E,1,4,1.61,49.2,M,15.2,M,,*66
$GPRMC,134739.198,A,2500.4690,N,12129.0755,E,0.60,223.66,140618,,,A*68
$GPGGA,134828.000,2500.4628,N,12129.0769,E,1,6,1.20,50.8,M,15.2,M,,*68
$GPRMC,134829.000,A,2500.4665,N,12129.0824,E,0.07,344.25,140618,,,A*63
$GPGGA,134914.170,2500.4638,N,12129.0870,E,1,3,4.41,51.8,M,15.2,M,,*60
$GPRMC,134915.170,A,2500.4638,N,12129.0869,E,0.24,326.13,140618,,,A*6A
$GPGGA,134958.173,2500.4524,N,12129.0875,E,1,3,4.45,51.6,M,15.2,M,,*6A
$GPRMC,135000.000,A,2500.4656,N,12129.0644,E,0.71,135.59,140618,,,A*67
$GPGGA,135037.149,2500.4711,N,12129.0812,E,1,4,1.57,51.8,M,15.2,M,,*68
$GPRMC,135039.000,A,2500.4717,N,12129.0823,E,0.90,68.36,140618,,,A*59
$GPGGA,135118.142,2500.4798,N,12129.0914,E,1,4,1.56,50.6,M,15.2,M,,*67
$GPRMC,135120.000,A,2500.4778,N,12129.0869,E,0.97,41.93,140618,,,A*54
$GPGGA,135202.150,2500.4553,N,12129.0963,E,1,4,1.55,51.4,M,15.2,M,,*69
$GPRMC,135203.150,A,2500.4649,N,12129.0826,E,0.86,57.65,140618,,,A*54
$GPGGA,135244.143,2500.4605,N,12129.0857,E,1,4,1.54,50.8,M,15.2,M,,*63
$GPRMC,135246.000,A,2500.4664,N,12129.0700,E,0.77,152.33,140618,,,A*6C
$GPGGA,135332.135,2500.4634,N,12129.0956,E,1,4,2.90,51.9,M,15.2,M,,*6B
$GPRMC,135333.135,A,2500.4581,N,12129.1007,E,7.15,280.71,140618,,,A*68
$GPGGA,135432.000,2500.4678,N,12129.0807,E,1,5,1.31,53.9,M,15.2,M,,*6D
$GPRMC,135433.000,A,2500.4682,N,12129.0806,E,0.50,338.43,140618,,,A*65
$GPGGA,135526.000,2500.4648,N,12129.0880,E,1,5,1.31,51.4,M,15.2,M,,*6A
$GPRMC,135527.000,A,2500.4650,N,12129.0879,E,1.23,300.53,140618,,,A*69
$GPGGA,140114.000,2500.4733,N,12129.0803,E,1,5,1.27,69.3,M,15.2,M,,*60
$GPRMC,140115.000,A,2500.4744,N,12129.0808,E,0.46,320.19,140618,,,A*62
$GPGGA,140238.000,2500.4786,N,12129.0782,E,1,6,1.15,60.7,M,15.2,M,,*6A
$GPRMC,140239.000,A,2500.4783,N,12129.0819,E,3.09,284.50,140618,,,A*6E
$GPGGA,140320.013,2500.4663,N,12129.0746,E,1,4,3.34,60.8,M,15.2,M,,*6E
$GPRMC,140321.013,A,2500.4674,N,12129.0805,E,3.46,85.20,140618,,,A*5F
$GPGGA,140409.022,2500.4758,N,12129.0465,E,1,4,3.39,60.4,M,15.2,M,,*6A
$GPRMC,140410.022,A,2500.4756,N,12129.0487,E,0.92,121.38,140618,,,A*63
$GPGGA,140451.997,2500.4739,N,12129.0590,E,1,4,3.43,60.0,M,15.2,M,,*65
$GPRMC,140452.997,A,2500.4743,N,12129.0606,E,7.07,85.71,140618,,,A*54
$GPGGA,140551.990,2500.4728,N,12129.0791,E,1,4,3.49,60.2,M,15.2,M,,*68
$GPRMC,140552.990,A,2500.4748,N,12129.0765,E,4.58,91.32,140618,,,A*56
$GPGGA,140637.979,2500.4704,N,12129.0820,E,1,4,3.54,59.1,M,15.2,M,,*62
$GPRMC,140638.979,A,2500.4763,N,12129.0702,E,3.16,94.94,140618,,,A*52
$GPGGA,140734.987,2500.4699,N,12129.0730,E,1,4,3.61,59.1,M,15.2,M,,*6C
$GPRMC,140735.987,A,2500.4711,N,12129.0792,E,2.71,269.83,140618,,,A*65
$GPGGA,140847.000,2500.4779,N,12129.1303,E,1,5,1.38,61.5,M,15.2,M,,*6B
$GPRMC,140848.000,A,2500.4747,N,12129.1412,E,4.33,88.65,140618,,,A*5A
$GPGGA,140957.000,2500.4776,N,12129.0894,E,1,5,1.22,56.5,M,15.2,M,,*6F
$GPRMC,140958.000,A,2500.4775,N,12129.0932,E,0.97,270.93,140618,,,A*63
$GPGGA,141150.935,2500.4730,N,12129.0506,E,1,4,3.96,59.8,M,15.2,M,,*64
$GPRMC,141151.935,A,2500.4729,N,12129.0502,E,1.08,125.34,140618,,,A*63
$GPGGA,141307.000,2500.4646,N,12129.0218,E,1,4,4.08,18.9,M,15.2,M,,*67
$GPRMC,141308.000,A,2500.4626,N,12129.0142,E,0.96,262.20,140618,,,A*6F
$GPGGA,141423.000,2500.4681,N,12128.9695,E,1,3,4.78,-17.6,M,15.2,M,,*49
$GPRMC,141424.000,A,2500.4672,N,12128.9833,E,11.93,92.35,140618,,,A*6C
$GPGGA,141552.000,2500.4691,N,12129.0052,E,1,4,4.37,10.5,M,15.2,M,,*6F
$GPRMC,141553.000,A,2500.4683,N,12128.9997,E,9.01,94.31,140618,,,A*5C
$GPGGA,141707.000,2500.4706,N,12129.1195,E,1,4,2.15,90.9,M,15.2,M,,*6B
$GPRMC,141708.000,A,2500.4704,N,12129.1144,E,6.68,269.73,140618,,,A*67
$GPGGA,151419.000,2500.4743,N,12129.0543,E,1,4,2.12,-28.6,M,15.2,M,,*4F
$GPRMC,151420.000,A,2500.4741,N,12129.0546,E,0.76,311.59,140618,,,A*66
$GPGGA,151535.000,2500.4302,N,12129.1331,E,1,4,2.12,251.9,M,15.2,M,,*5D
$GPRMC,151536.000,A,2500.4311,N,12129.1315,E,0.43,321.40,140618,,,A*6D
$GPGGA,151717.000,2500.4318,N,12129.1335,E,1,4,2.11,269.2,M,15.2,M,,*53
$GPRMC,151718.000,A,2500.4305,N,12129.1338,E,3.08,299.56,140618,,,A*60
$GPGGA,151924.000,2500.4284,N,12129.1329,E,1,4,2.11,193.4,M,15.2,M,,*54
$GPRMC,151925.000,A,2500.4332,N,12129.1250,E,0.58,80.34,140618,,,A*53
$GPGGA,152157.000,2500.4441,N,12129.1103,E,1,4,2.11,102.9,M,15.2,M,,*5B
$GPRMC,152158.000,A,2500.4495,N,12129.0975,E,6.09,154.56,140618,,,A*6B
$GPGGA,152800.000,2500.4965,N,12129.0707,E,1,4,3.26,-181.6,M,15.2,M,,*74
$GPRMC,152801.000,A,2500.4923,N,12129.0715,E,0.17,34.72,140618,,,A*5E
$GPGGA,152907.121,2500.4668,N,12129.0666,E,1,4,2.09,44.2,M,15.2,M,,*69
$GPRMC,152909.000,A,2500.4678,N,12129.0643,E,1.96,245.14,140618,,,A*68
$GPGGA,153025.093,2500.4713,N,12129.0635,E,1,4,2.09,22.3,M,15.2,M,,*63
$GPRMC,153026.093,A,2500.4711,N,12129.0627,E,2.23,252.46,140618,,,A*67
$GPGGA,153159.096,2500.4821,N,12129.0422,E,1,4,2.09,-58.8,M,15.2,M,,*4D
$GPRMC,153201.000,A,2500.4777,N,12129.0613,E,2.41,130.15,140618,,,A*68
$GPGGA,153305.063,2500.4742,N,12129.0560,E,1,4,2.09,-3.4,M,15.2,M,,*73
$GPRMC,153306.063,A,2500.4692,N,12129.0553,E,2.76,310.15,140618,,,A*62
$GPGGA,153453.067,2500.4740,N,12129.0631,E,1,4,2.08,-33.2,M,15.2,M,,*42
$GPRMC,153455.000,A,2500.4733,N,12129.0638,E,2.66,120.04,140618,,,A*62
$GPGGA,153554.033,2500.4950,N,12129.0390,E,1,4,2.08,-80.8,M,15.2,M,,*46
$GPRMC,153556.000,A,2500.4939,N,12129.0399,E,1.97,301.64,140618,,,A*60
$GPGGA,153654.021,2500.4793,N,12129.0529,E,1,4,2.08,-3.8,M,15.2,M,,*78
$GPRMC,153656.000,A,2500.4707,N,12129.0621,E,1.53,277.00,140618,,,A*6C
$GPGGA,153748.010,2500.4847,N,12129.0239,E,1,5,1.56,-90.1,M,15.2,M,,*4C
$GPRMC,153749.010,A,2500.4761,N,12129.0372,E,1.51,314.78,140618,,,A*68
$GPGGA,153948.000,2500.4706,N,12129.0605,E,1,4,2.08,30.5,M,15.2,M,,*68
$GPRMC,153951.000,A,2500.4657,N,12129.0902,E,9.51,94.67,140618,,,A*5A
$GPGGA,154028.979,2500.4751,N,12129.0649,E,1,4,2.08,56.1,M,15.2,M,,*69
$GPRMC,154029.979,A,2500.4782,N,12129.0657,E,2.92,314.81,140618,,,A*6D
$GPGGA,154118.000,2500.4773,N,12129.0617,E,1,3,2.32,56.6,M,15.2,M,,*6E
$GPRMC,154119.000,A,2500.4845,N,12129.0566,E,1.70,286.22,140618,,,A*61
$GPGGA,154204.000,2500.4675,N,12129.0774,E,1,3,3.30,56.5,M,15.2,M,,*63
$GPRMC,154205.000,A,2500.4648,N,12129.0783,E,0.71,248.18,140618,,,A*6E
$GPGGA,154242.955,2500.4673,N,12129.0694,E,1,4,2.08,56.3,M,15.2,M,,*6A
$GPRMC,154244.000,A,2500.4680,N,12129.0705,E,0.65,302.30,140618,,,A*61
$GPGGA,154322.957,2500.4714,N,12129.0700,E,1,4,2.08,56.6,M,15.2,M,,*66
$GPRMC,154323.957,A,2500.4710,N,12129.0698,E,0.37,226.94,140618,,,A*69
$GPGGA,154404.924,2500.4701,N,12129.0607,E,1,4,2.08,56.6,M,15.2,M,,*63
$GPRMC,154405.925,A,2500.4716,N,12129.0577,E,0.23,270.51,140618,,,A*64
$GPGGA,154448.930,2500.4644,N,12129.0613,E,1,4,2.08,56.7,M,15.2,M,,*6A
$GPRMC,154449.932,A,2500.4630,N,12129.0639,E,0.18,160.58,140618,,,A*65
$GPGGA,154542.942,2500.4722,N,12129.0661,E,1,4,2.08,46.5,M,15.2,M,,*63
$GPRMC,154544.000,A,2500.4710,N,12129.0648,E,2.99,292.23,140618,,,A*6D
$GPGGA,154623.916,2500.4690,N,12129.0570,E,1,4,2.08,42.3,M,15.2,M,,*6F
$GPRMC,154625.000,A,2500.4692,N,12129.0601,E,1.48,282.77,140618,,,A*60
$GPGGA,154708.909,2500.4814,N,12129.0618,E,1,4,2.08,37.1,M,15.2,M,,*66
$GPRMC,154710.000,A,2500.4767,N,12129.0666,E,1.12,126.25,140618,,,A*68
$GPGGA,154803.000,2500.4704,N,12129.0499,E,1,4,2.08,2.0,M,15.2,M,,*50
$GPRMC,154804.000,A,2500.4728,N,12129.0548,E,2.90,331.87,140618,,,A*63
$GPGGA,154851.000,2500.4696,N,12129.0686,E,1,4,2.08,57.7,M,15.2,M,,*66
$GPRMC,154852.000,A,2500.4624,N,12129.0750,E,1.47,286.78,140618,,,A*62
$GPGGA,154944.000,2500.4703,N,12129.0567,E,1,4,2.08,25.0,M,15.2,M,,*60
$GPRMC,154945.000,A,2500.4683,N,12129.0628,E,0.52,14.92,140618,,,A*5E
$GPGGA,155206.000,2500.4631,N,12129.0491,E,1,4,2.08,-5.2,M,15.2,M,,*79
$GPRMC,155207.000,A,2500.4632,N,12129.0494,E,0.19,236.18,140618,,,A*62
$GPGGA,155300.848,2500.4584,N,12129.0802,E,1,4,2.08,49.0,M,15.2,M,,*66
$GPRMC,155301.848,A,2500.4579,N,12129.0811,E,0.84,152.76,140618,,,A*61
$GPGGA,155405.000,2500.4616,N,12129.0690,E,1,4,2.08,47.2,M,15.2,M,,*61
$GPRMC,155406.000,A,2500.4639,N,12129.0671,E,1.73,320.09,140618,,,A*6C
$GPGGA,155444.827,2500.4584,N,12129.0793,E,1,4,2.08,19.4,M,15.2,M,,*6E
$GPRMC,155445.827,A,2500.4611,N,12129.0776,E,2.80,279.36,140618,,,A*64
$GPGGA,155602.820,2500.4709,N,12129.0508,E,1,4,2.08,-9.0,M,15.2,M,,*76
$GPRMC,155603.820,A,2500.4689,N,12129.0508,E,0.30,260.53,140618,,,A*6B
$GPGGA,155649.822,2500.4841,N,12129.0575,E,1,4,2.08,-16.0,M,15.2,M,,*4C
$GPRMC,155651.000,A,2500.4826,N,12129.0507,E,2.78,123.86,140618,,,A*60
$GPGGA,155733.000,2500.4569,N,12129.0689,E,1,3,2.28,32.9,M,15.2,M,,*68
$GPRMC,155734.000,A,2500.4595,N,12129.0661,E,0.32,163.94,140618,,,A*6F
$GPGGA,155815.790,2500.4615,N,12129.0671,E,1,4,2.08,50.4,M,15.2,M,,*6E
$GPRMC,155817.000,A,2500.4616,N,12129.0668,E,0.95,121.08,140618,,,A*6E
$GPGGA,155854.782,2500.4822,N,12129.0463,E,1,4,2.08,-4.7,M,15.2,M,,*7C
$GPRMC,155856.000,A,2500.4759,N,12129.0533,E,1.13,326.64,140618,,,A*6C
$GPGGA,160023.791,2500.4778,N,12129.0930,E,1,4,2.08,117.1,M,15.2,M,,*53
$GPRMC,160024.791,A,2500.4762,N,12129.0950,E,0.37,55.74,140618,,,A*58
$GPGGA,160459.738,2500.4714,N,12129.0814,E,1,4,2.09,70.8,M,15.2,M,,*6C
$GPRMC,160500.738,A,2500.4712,N,12129.0807,E,0.86,284.56,140618,,,A*68
$GPGGA,160606.726,2500.4711,N,12129.0638,E,1,4,2.08,52.3,M,15.2,M,,*64
$GPRMC,160607.726,A,2500.4714,N,12129.0637,E,0.92,298.85,140618,,,A*6E
$GPGGA,160710.714,2500.4748,N,12129.0739,E,1,4,2.08,51.0,M,15.2,M,,*6F
$GPRMC,160711.714,A,2500.4745,N,12129.0737,E,0.52,251.69,140618,,,A*67
$GPGGA,160826.703,2500.4731,N,12129.0581,E,1,4,2.08,27.6,M,15.2,M,,*6B
$GPRMC,160827.703,A,2500.4732,N,12129.0585,E,0.49,336.24,140618,,,A*63
$GPGGA,160916.689,2500.4694,N,12129.0657,E,1,4,2.08,31.2,M,15.2,M,,*6F
$GPRMC,160918.000,A,2500.4697,N,12129.0655,E,0.66,45.74,140618,,,A*55
$GPGGA,161005.664,2500.4672,N,12129.0698,E,1,4,2.08,39.5,M,15.2,M,,*62
$GPRMC,161007.000,A,2500.4679,N,12129.0691,E,0.94,31.84,140618,,,A*5A
$GPGGA,161056.655,2500.4717,N,12129.0594,E,1,4,2.08,3.7,M,15.2,M,,*50
$GPRMC,161058.000,A,2500.4719,N,12129.0607,E,0.47,312.36,140618,,,A*6D
$GPGGA,161147.646,2500.4708,N,12129.0466,E,1,4,2.08,3.3,M,15.2,M,,*55
$GPRMC,161149.000,A,2500.4711,N,12129.0451,E,0.96,340.65,140618,,,A*68
$GPGGA,161314.637,2500.4499,N,12129.0846,E,1,4,2.08,67.3,M,15.2,M,,*60
$GPRMC,161315.637,A,2500.4491,N,12129.0856,E,1.15,141.22,140618,,,A*6B
*Q IpR           tš&*Q IS¸!ƒ¬L&*Q Irÿÿÿÿÿÿÿÿ_&*Q IV2017/6/21 V1.0 &*Q IS¸!ƒ¬L&*Q Irÿÿÿÿÿÿÿÿ_&*Q IV2017/6/21 V1.0 &*Q IS¸!ƒ¬L&*Q IpR           t™&Response OK !!
 