$GPGGA,103510.000,2500.3587,N,12128.4789,E,1,3,4.12,134.8,M,15.2,M,,*52
$GPRMC,103510.000,A,2500.3587,N,12128.4789,E,0.12,115.03,171017,,,A*68
$GPGGA,104002.088,2459.8176,N,12128.0764,E,1,6,1.21,34.5,M,15.2,M,,*64
$GPRMC,104002.088,A,2459.8176,N,12128.0764,E,0.56,269.70,171017,,,A*6E
$GPGGA,104318.000,2459.4624,N,12127.6229,E,1,5,1.59,16.9,M,15.2,M,,*65
$GPRMC,104318.000,A,2459.4624,N,12127.6229,E,2.51,333.82,171017,,,A*69
$GPGGA,104636.000,2459.6495,N,12127.2735,E,1,6,1.23,45.1,M,15.2,M,,*6A
$GPRMC,104636.000,A,2459.6495,N,12127.2735,E,0.27,277.65,171017,,,A*6D
$GPGGA,104959.101,2459.6194,N,12127.2945,E,1,5,1.47,293.9,M,15.2,M,,*51
$GPRMC,104959.101,A,2459.6194,N,12127.2945,E,1.10,315.25,171017,,,A*62
$GPGGA,105323.090,2459.6496,N,12127.2750,E,1,6,1.25,57.8,M,15.2,M,,*6F
$GPRMC,105323.090,A,2459.6496,N,12127.2750,E,0.90,122.89,171017,,,A*69
$GPGGA,105643.091,2459.6506,N,12127.2825,E,1,5,1.70,18.2,M,15.2,M,,*6A
$GPRMC,105643.091,A,2459.6506,N,12127.2825,E,0.51,81.71,171017,,,A*5C
$GPGGA,110130.000,2459.6439,N,12127.2751,E,1,4,1.60,0.0,M,15.2,M,,*5F
$GPRMC,110130.000,A,2459.6439,N,12127.2751,E,0.72,14.14,171017,,,A*5C
$GPGGA,110602.000,2459.6385,N,12127.2707,E,1,6,1.12,22.0,M,15.2,M,,*6D
$GPRMC,110602.000,A,2459.6385,N,12127.2707,E,0.07,320.54,171017,,,A*6B
$GPGGA,110907.089,2459.6072,N,12127.2585,E,1,6,1.30,23.0,M,15.2,M,,*64
$GPRMC,110907.089,A,2459.6072,N,12127.2585,E,2.45,187.39,171017,,,A*63
$GPGGA,111211.132,2459.6299,N,12127.2709,E,1,4,1.39,24.8,M,15.2,M,,*6D
$GPRMC,111211.132,A,2459.6299,N,12127.2709,E,0.32,250.57,171017,,,A*6D
$GPGGA,111517.118,2459.6428,N,12127.2990,E,1,6,1.34,45.2,M,15.2,M,,*64
$GPRMC,111517.118,A,2459.6428,N,12127.2990,E,1.47,304.34,171017,,,A*60
$GPGGA,111824.988,2459.6670,N,12127.2622,E,1,5,3.35,88.9,M,15.2,M,,*6B
$GPRMC,111824.988,A,2459.6670,N,12127.2622,E,2.37,28.93,171017,,,A*51
$GPGGA,112131.996,2459.6184,N,12127.2590,E,1,6,1.36,36.2,M,15.2,M,,*60
$GPRMC,112131.996,A,2459.6184,N,12127.2590,E,0.34,47.27,171017,,,A*51
$GPGGA,112434.932,2459.6117,N,12127.2515,E,1,4,2.27,17.7,M,15.2,M,,*6E
$GPRMC,112434.932,A,2459.6117,N,12127.2515,E,0.54,72.32,171017,,,A*5C
$GPGGA,112742.916,2459.6148,N,12127.2574,E,1,5,2.03,17.0,M,15.2,M,,*67
$GPRMC,112742.916,A,2459.6148,N,12127.2574,E,0.73,54.03,171017,,,A*56
$GPGGA,113045.872,2459.6365,N,12127.2810,E,1,4,2.27,15.7,M,15.2,M,,*65
$GPRMC,113045.872,A,2459.6365,N,12127.2810,E,0.52,90.60,171017,,,A*58
$GPGGA,113353.885,2459.6388,N,12127.2718,E,1,6,1.40,80.7,M,15.2,M,,*61
$GPRMC,113353.885,A,2459.6388,N,12127.2718,E,0.51,318.49,171017,,,A*6B
$GPGGA,113702.858,2459.6357,N,12127.2750,E,1,6,1.82,42.3,M,15.2,M,,*6B
$GPRMC,113702.858,A,2459.6357,N,12127.2750,E,1.59,48.46,171017,,,A*55
$GPGGA,114009.788,2459.6368,N,12127.2692,E,1,5,1.91,-13.4,M,15.2,M,,*4E
$GPRMC,114009.788,A,2459.6368,N,12127.2692,E,0.39,15.24,171017,,,A*54
$GPGGA,114314.800,2459.6399,N,12127.2682,E,1,7,1.32,48.2,M,15.2,M,,*6F
$GPRMC,114314.800,A,2459.6399,N,12127.2682,E,0.68,167.69,171017,,,A*62
$GPGGA,114621.752,2459.6252,N,12127.2594,E,1,7,1.31,35.0,M,15.2,M,,*6D
$GPRMC,114621.752,A,2459.6252,N,12127.2594,E,0.35,296.86,171017,,,A*6F
$GPGGA,114932.720,2459.6752,N,12127.3080,E,1,5,2.50,-1.6,M,15.2,M,,*7B
$GPRMC,114932.720,A,2459.6752,N,12127.3080,E,5.66,15.17,171017,,,A*51
$GPGGA,115246.688,2459.6433,N,12127.2645,E,1,6,1.63,87.9,M,15.2,M,,*67
$GPRMC,115246.688,A,2459.6433,N,12127.2645,E,1.54,45.55,171017,,,A*57
$GPGGA,115556.655,2459.6074,N,12127.2329,E,1,4,2.43,-250.9,M,15.2,M,,*7F
$GPRMC,115556.655,A,2459.6074,N,12127.2329,E,0.31,42.39,171017,,,A*56
$GPGGA,115908.624,2459.6151,N,12127.2585,E,1,5,2.26,-60.3,M,15.2,M,,*41
$GPRMC,115908.624,A,2459.6151,N,12127.2585,E,1.52,136.54,171017,,,A*6C
$GPGGA,120213.609,2459.6389,N,12127.2876,E,1,5,1.61,14.2,M,15.2,M,,*60
$GPRMC,120213.609,A,2459.6389,N,12127.2876,E,1.94,1.62,171017,,,A*68
$GPGGA,120526.560,2459.6228,N,12127.2712,E,1,4,2.92,-1.6,M,15.2,M,,*79
$GPRMC,120526.560,A,2459.6228,N,12127.2712,E,1.21,309.21,171017,,,A*60
$GPGGA,120833.552,2459.6175,N,12127.2718,E,1,5,1.55,-36.4,M,15.2,M,,*4F
$GPRMC,120833.552,A,2459.6175,N,12127.2718,E,1.28,220.40,171017,,,A*6D
$GPGGA,121140.493,2459.6266,N,12127.2683,E,1,5,1.52,35.1,M,15.2,M,,*61
$GPRMC,121140.493,A,2459.6266,N,12127.2683,E,1.65,301.95,171017,,,A*6C
$GPGGA,121449.415,2459.6385,N,12127.2533,E,1,5,1.50,36.7,M,15.2,M,,*60
$GPRMC,121449.415,A,2459.6385,N,12127.2533,E,1.19,123.00,171017,,,A*6F
$GPGGA,121754.397,2459.6508,N,12127.2905,E,1,4,2.33,-72.6,M,15.2,M,,*43
$GPRMC,121754.397,A,2459.6508,N,12127.2905,E,0.46,287.31,171017,,,A*63
$GPGGA,122107.403,2459.6168,N,12127.2805,E,1,4,2.24,-73.9,M,15.2,M,,*41
$GPRMC,122107.403,A,2459.6168,N,12127.2805,E,0.82,332.83,171017,,,A*67
$GPGGA,122410.394,2459.6247,N,12127.2778,E,1,5,1.45,-1.8,M,15.2,M,,*71
$GPRMC,122410.394,A,2459.6247,N,12127.2778,E,0.59,119.35,171017,,,A*66
$GPGGA,122714.374,2459.6172,N,12127.2734,E,1,5,1.45,-8.8,M,15.2,M,,*7C
$GPRMC,122714.374,A,2459.6172,N,12127.2734,E,0.75,67.71,171017,,,A*54
$GPGGA,123020.326,2459.6275,N,12127.2778,E,1,5,1.44,-49.9,M,15.2,M,,*43
$GPRMC,123020.326,A,2459.6275,N,12127.2778,E,0.82,234.21,171017,,,A*67
$GPGGA,123336.000,2459.6157,N,12127.2895,E,1,5,1.44,79.8,M,15.2,M,,*60
$GPRMC,123336.000,A,2459.6157,N,12127.2895,E,1.36,322.94,171017,,,A*6D
$GPGGA,123639.229,2459.6415,N,12127.2711,E,1,5,1.45,13.1,M,15.2,M,,*67
$GPRMC,123639.229,A,2459.6415,N,12127.2711,E,0.82,120.35,171017,,,A*6B
$GPGGA,124000.198,2459.6391,N,12127.2883,E,1,4,1.97,-15.8,M,15.2,M,,*46
$GPRMC,124000.198,A,2459.6391,N,12127.2883,E,0.88,138.19,171017,,,A*6B
$GPGGA,124312.240,2459.6272,N,12127.2945,E,1,5,1.46,-3.8,M,15.2,M,,*7D
$GPRMC,124312.240,A,2459.6272,N,12127.2945,E,0.28,122.76,171017,,,A*62
$GPGGA,124618.093,2459.6535,N,12127.2599,E,1,4,1.94,-4.1,M,15.2,M,,*77
$GPRMC,124618.093,A,2459.6535,N,12127.2599,E,0.27,317.71,171017,,,A*64
$GPGGA,124923.064,2459.6389,N,12127.2799,E,1,4,1.93,-54.7,M,15.2,M,,*4F
$GPRMC,124923.064,A,2459.6389,N,12127.2799,E,0.03,123.50,171017,,,A*68
$GPGGA,125236.136,2459.6151,N,12127.3014,E,1,5,1.51,-50.2,M,15.2,M,,*4D
$GPRMC,125236.136,A,2459.6151,N,12127.3014,E,0.97,140.41,171017,,,A*6C
$GPGGA,125539.056,2459.6354,N,12127.2706,E,1,5,1.53,46.0,M,15.2,M,,*6A
$GPRMC,125539.056,A,2459.6354,N,12127.2706,E,1.25,303.17,171017,,,A*6F
$GPGGA,125843.975,2459.6520,N,12127.2487,E,1,4,1.94,-54.7,M,15.2,M,,*4E
$GPRMC,125843.975,A,2459.6520,N,12127.2487,E,0.19,13.26,171017,,,A*56
$GPGGA,130150.080,2459.6100,N,12127.3026,E,1,5,1.58,-68.7,M,15.2,M,,*44
$GPRMC,130150.080,A,2459.6100,N,12127.3026,E,1.62,76.45,171017,,,A*59
$GPGGA,130455.905,2459.6469,N,12127.2493,E,1,4,1.97,32.6,M,15.2,M,,*60
$GPRMC,130455.905,A,2459.6469,N,12127.2493,E,0.23,337.89,171017,,,A*6E
$GPGGA,130808.929,2459.6353,N,12127.2871,E,1,4,1.99,26.2,M,15.2,M,,*6B
$GPRMC,130808.929,A,2459.6353,N,12127.2871,E,0.23,136.95,171017,,,A*64
$GPGGA,131119.897,2459.6516,N,12127.2649,E,1,4,2.01,-59.2,M,15.2,M,,*42
$GPRMC,131119.897,A,2459.6516,N,12127.2649,E,0.69,106.70,171017,,,A*6C
$GPGGA,131431.865,2459.6362,N,12127.2613,E,1,4,2.04,-14.0,M,15.2,M,,*44
$GPRMC,131431.865,A,2459.6362,N,12127.2613,E,0.96,106.29,171017,,,A*68
$GPGGA,131816.000,2459.6382,N,12127.2477,E,1,4,2.08,-36.2,M,15.2,M,,*46
$GPRMC,131816.000,A,2459.6382,N,12127.2477,E,1.45,111.60,171017,,,A*60
$GPGGA,132132.795,2459.2902,N,12127.4070,E,1,4,3.96,-16.6,M,15.2,M,,*42
$GPRMC,132132.795,A,2459.2902,N,12127.4070,E,1.93,287.09,171017,,,A*6C
$GPGGA,132530.762,2458.8531,N,12126.9124,E,1,5,1.70,19.4,M,15.2,M,,*6C
$GPRMC,132530.762,A,2458.8531,N,12126.9124,E,5.90,152.67,171017,,,A*6D
$GPGGA,132843.706,2458.3413,N,12126.6150,E,1,5,2.15,19.6,M,15.2,M,,*63
$GPRMC,132843.706,A,2458.3413,N,12126.6150,E,1.09,135.37,171017,,,A*60
$GPGGA,134226.000,2458.2026,N,12126.6022,E,1,4,11.24,101.5,M,15.2,M,,*60
$GPRMC,134226.000,A,2458.2026,N,12126.6022,E,14.65,315.61,171017,,,A*54
$GPGGA,135108.000,2458.1933,N,12126.6080,E,1,4,11.91,99.2,M,15.2,M,,*51
$GPRMC,135108.000,A,2458.1933,N,12126.6080,E,5.20,141.82,171017,,,A*63
$GPGGA,135438.000,2458.2244,N,12126.5806,E,1,4,4.46,74.7,M,15.2,M,,*62
$GPRMC,135438.000,A,2458.2244,N,12126.5806,E,1.96,310.09,171017,,,A*64
$GPGGA,135917.000,2458.1522,N,12126.6535,E,1,5,2.03,74.4,M,15.2,M,,*6D
$GPRMC,135917.000,A,2458.1522,N,12126.6535,E,2.66,140.45,171017,,,A*6D
$GPGGA,141902.000,2458.1934,N,12126.6302,E,1,5,1.95,101.0,M,15.2,M,,*58
$GPRMC,141902.000,A,2458.1934,N,12126.6302,E,0.61,60.31,171017,,,A*56
$GPGGA,142330.000,2458.2222,N,12126.5799,E,1,4,2.93,50.5,M,15.2,M,,*6E
$GPRMC,142330.000,A,2458.2222,N,12126.5799,E,1.41,320.52,171017,,,A*65
$GPGGA,142826.000,2458.2338,N,12126.5650,E,1,5,3.15,59.4,M,15.2,M,,*6A
$GPRMC,142826.000,A,2458.2338,N,12126.5650,E,0.79,91.53,171017,,,A*55
$GPGGA,143304.000,2458.1968,N,12126.6393,E,1,6,1.56,57.3,M,15.2,M,,*6A
$GPRMC,143304.000,A,2458.1968,N,12126.6393,E,1.68,313.90,171017,,,A*6D
$GPGGA,143614.029,2458.1803,N,12126.6406,E,1,4,2.02,60.0,M,15.2,M,,*65
$GPRMC,143614.029,A,2458.1803,N,12126.6406,E,1.39,236.03,171017,,,A*6D
$GPGGA,143939.000,2458.1803,N,12126.6605,E,1,6,1.64,64.8,M,15.2,M,,*62
$GPRMC,143939.000,A,2458.1803,N,12126.6605,E,1.16,310.54,171017,,,A*6D
$GPGGA,144755.928,2458.2018,N,12126.6326,E,1,6,1.64,56.5,M,15.2,M,,*6B
$GPRMC,144755.928,A,2458.2018,N,12126.6326,E,2.64,288.98,171017,,,A*6E
$GPGGA,145131.000,2458.2251,N,12126.5859,E,1,6,3.46,46.1,M,15.2,M,,*65
$GPRMC,145131.000,A,2458.2251,N,12126.5859,E,0.92,57.03,171017,,,A*5E
$GPGGA,145446.000,2458.2231,N,12126.5852,E,1,6,3.59,34.6,M,15.2,M,,*61
$GPRMC,145446.000,A,2458.2231,N,12126.5852,E,4.44,292.01,171017,,,A*60
$GPGGA,145813.811,2458.2087,N,12126.6211,E,1,6,3.71,38.7,M,15.2,M,,*63
$GPRMC,145813.811,A,2458.2087,N,12126.6211,E,0.26,78.62,171017,,,A*56
$GPGGA,150135.000,2458.2268,N,12126.5812,E,1,6,3.91,36.6,M,15.2,M,,*6A
$GPRMC,150135.000,A,2458.2268,N,12126.5812,E,1.09,119.72,171017,,,A*65
$GPGGA,150449.743,2458.2237,N,12126.5878,E,1,6,4.09,35.2,M,15.2,M,,*63
$GPRMC,150449.743,A,2458.2237,N,12126.5878,E,5.39,300.53,171017,,,A*63
$GPGGA,150809.000,2458.2347,N,12126.5634,E,1,6,4.24,56.8,M,15.2,M,,*6B
$GPRMC,150809.000,A,2458.2347,N,12126.5634,E,4.55,298.85,171017,,,A*6B
$GPGGA,151148.000,2458.1980,N,12126.6201,E,1,6,1.55,56.6,M,15.2,M,,*68
$GPRMC,151148.000,A,2458.1980,N,12126.6201,E,1.40,92.23,171017,,,A*50
$GPGGA,151505.000,2458.2384,N,12126.5523,E,1,4,4.71,57.5,M,15.2,M,,*6F
$GPRMC,151505.000,A,2458.2384,N,12126.5523,E,10.34,296.91,171017,,,A*58
$GPGGA,151839.000,2458.2411,N,12126.5523,E,1,4,5.79,56.4,M,15.2,M,,*6F
$GPRMC,151839.000,A,2458.2411,N,12126.5523,E,7.36,281.58,171017,,,A*66
$GPGGA,152222.000,2458.2431,N,12126.5452,E,1,5,4.35,85.0,M,15.2,M,,*6B
$GPRMC,152222.000,A,2458.2431,N,12126.5452,E,1.69,323.92,171017,,,A*63
$GPGGA,152553.000,2458.2099,N,12126.6357,E,1,5,1.57,-61.9,M,15.2,M,,*42
$GPRMC,152553.000,A,2458.2099,N,12126.6357,E,0.68,28.75,171017,,,A*54
$GPGGA,152922.000,2458.2411,N,12126.5713,E,1,5,4.06,63.5,M,15.2,M,,*69
$GPRMC,152922.000,A,2458.2411,N,12126.5713,E,1.84,102.94,171017,,,A*68
$GPGGA,153234.464,2458.1991,N,12126.6430,E,1,6,1.54,-111.3,M,15.2,M,,*7B
$GPRMC,153234.464,A,2458.1991,N,12126.6430,E,1.37,285.66,171017,,,A*6D
$GPGGA,153537.432,2458.2332,N,12126.5627,E,1,4,3.81,55.2,M,15.2,M,,*6E
$GPRMC,153537.432,A,2458.2332,N,12126.5627,E,1.74,306.38,171017,,,A*6B
$GPGGA,153849.401,2458.2344,N,12126.5818,E,1,5,1.88,64.2,M,15.2,M,,*61
$GPRMC,153849.401,A,2458.2344,N,12126.5818,E,1.16,130.25,171017,,,A*63
$GPGGA,154208.000,2458.2279,N,12126.5759,E,1,6,1.82,60.1,M,15.2,M,,*67
$GPRMC,154208.000,A,2458.2279,N,12126.5759,E,1.87,325.76,171017,,,A*63
$GPGGA,154528.000,2458.2168,N,12126.5786,E,1,5,1.85,64.4,M,15.2,M,,*66
$GPRMC,154528.000,A,2458.2168,N,12126.5786,E,0.52,121.57,171017,,,A*6B
$GPGGA,154851.000,2458.1696,N,12126.6040,E,1,6,1.47,38.1,M,15.2,M,,*6F
$GPRMC,154851.000,A,2458.1696,N,12126.6040,E,3.32,337.02,171017,,,A*63
$GPGGA,155216.000,2458.1811,N,12126.5888,E,1,6,1.46,78.8,M,15.2,M,,*65
$GPRMC,155216.000,A,2458.1811,N,12126.5888,E,7.31,336.95,171017,,,A*6D
$GPGGA,155536.000,2458.2180,N,12126.5726,E,1,5,1.85,38.8,M,15.2,M,,*61
$GPRMC,155536.000,A,2458.2180,N,12126.5726,E,1.02,314.93,171017,,,A*61
$GPGGA,155851.204,2458.2211,N,12126.5671,E,1,6,1.76,20.3,M,15.2,M,,*6E
$GPRMC,155851.204,A,2458.2211,N,12126.5671,E,1.42,318.63,171017,,,A*64
$GPGGA,160202.184,2458.2191,N,12126.5720,E,1,6,1.76,25.5,M,15.2,M,,*62
$GPRMC,160202.184,A,2458.2191,N,12126.5720,E,2.24,269.82,171017,,,A*60
$GPGGA,160517.152,2458.2174,N,12126.5835,E,1,5,4.55,62.6,M,15.2,M,,*6D
$GPRMC,160517.152,A,2458.2174,N,12126.5835,E,2.75,301.34,171017,,,A*6E
$GPGGA,160839.103,2458.2296,N,12126.5769,E,1,6,1.75,50.5,M,15.2,M,,*67
$GPRMC,160839.103,A,2458.2296,N,12126.5769,E,0.42,49.13,171017,,,A*5E
$GPGGA,161241.000,2458.1742,N,12126.6155,E,1,6,1.46,104.0,M,15.2,M,,*51
$GPRMC,161241.000,A,2458.1742,N,12126.6155,E,1.15,286.44,171017,,,A*6D
$GPGGA,161557.029,2458.1756,N,12126.5893,E,1,5,3.74,104.1,M,15.2,M,,*5E
$GPRMC,161557.029,A,2458.1756,N,12126.5893,E,4.73,299.77,171017,,,A*68
$GPGGA,161929.012,2458.1711,N,12126.6130,E,1,6,1.47,93.3,M,15.2,M,,*6F
$GPRMC,161929.012,A,2458.1711,N,12126.6130,E,1.75,303.49,171017,,,A*69
$GPGGA,162251.961,2458.2047,N,12126.6218,E,1,6,1.48,83.9,M,15.2,M,,*6F
$GPRMC,162251.961,A,2458.2047,N,12126.6218,E,2.99,309.51,171017,,,A*6F
$GPGGA,162602.927,2458.2331,N,12126.5684,E,1,5,3.17,36.8,M,15.2,M,,*6B
$GPRMC,162602.927,A,2458.2331,N,12126.5684,E,0.12,341.65,171017,,,A*65
$GPGGA,162927.911,2458.2313,N,12126.5744,E,1,5,3.02,32.1,M,15.2,M,,*62
$GPRMC,162927.911,A,2458.2313,N,12126.5744,E,1.87,296.06,171017,,,A*66
$GPGGA,163250.000,2458.2307,N,12126.5711,E,1,5,2.90,48.7,M,15.2,M,,*65
$GPRMC,163250.000,A,2458.2307,N,12126.5711,E,1.93,151.14,171017,,,A*6E
$GPGGA,163604.000,2458.2347,N,12126.5675,E,1,5,2.80,47.6,M,15.2,M,,*68
$GPRMC,163604.000,A,2458.2347,N,12126.5675,E,0.55,190.49,171017,,,A*62
$GPGGA,163909.795,2458.2346,N,12126.5747,E,1,5,2.72,41.9,M,15.2,M,,*64
$GPRMC,163909.795,A,2458.2346,N,12126.5747,E,1.75,293.30,171017,,,A*67
$GPGGA,164221.000,2458.2253,N,12126.5792,E,1,5,2.65,49.9,M,15.2,M,,*6A
$GPRMC,164221.000,A,2458.2253,N,12126.5792,E,3.27,302.35,171017,,,A*6E
$GPGGA,164601.747,2458.2246,N,12126.5844,E,1,5,2.67,57.1,M,15.2,M,,*6D
$GPRMC,164601.747,A,2458.2246,N,12126.5844,E,0.39,188.46,171017,,,A*64
$GPGGA,164920.000,2458.2568,N,12126.5443,E,1,6,2.47,6.7,M,15.2,M,,*56
$GPRMC,164920.000,A,2458.2568,N,12126.5443,E,2.41,317.57,171017,,,A*65
$GPGGA,165231.661,2458.2569,N,12126.5412,E,1,6,2.45,13.6,M,15.2,M,,*6F
$GPRMC,165231.661,A,2458.2569,N,12126.5412,E,0.55,266.95,171017,,,A*65
$GPGGA,165545.000,2458.2276,N,12126.5811,E,1,6,2.41,51.8,M,15.2,M,,*60
$GPRMC,165545.000,A,2458.2276,N,12126.5811,E,0.59,285.79,171017,,,A*65
$GPGGA,165858.652,2458.1862,N,12126.6450,E,1,5,2.54,51.8,M,15.2,M,,*61
$GPRMC,165858.652,A,2458.1862,N,12126.6450,E,2.68,282.10,171017,,,A*6B
$GPGGA,170220.000,2458.1983,N,12126.6313,E,1,5,1.86,48.2,M,15.2,M,,*61
$GPRMC,170220.000,A,2458.1983,N,12126.6313,E,1.79,99.13,171017,,,A*5D
$GPGGA,170538.531,2458.1807,N,12126.6451,E,1,6,1.65,91.3,M,15.2,M,,*6F
$GPRMC,170538.531,A,2458.1807,N,12126.6451,E,3.10,301.33,171017,,,A*65
$GPGGA,170850.514,2458.2211,N,12126.5882,E,1,5,2.38,32.9,M,15.2,M,,*6F
$GPRMC,170850.514,A,2458.2211,N,12126.5882,E,2.59,301.91,171017,,,A*6A
$GPGGA,171202.482,2458.1759,N,12126.6255,E,1,6,1.68,196.0,M,15.2,M,,*57
$GPRMC,171202.482,A,2458.1759,N,12126.6255,E,2.28,49.33,171017,,,A*50
$GPGGA,171519.450,2458.1827,N,12126.6107,E,1,5,1.96,160.6,M,15.2,M,,*5A
$GPRMC,171519.450,A,2458.1827,N,12126.6107,E,0.78,358.61,171017,,,A*63
$GPGGA,171851.417,2458.2317,N,12126.5784,E,1,5,2.18,40.4,M,15.2,M,,*69
$GPRMC,171851.417,A,2458.2317,N,12126.5784,E,0.59,264.37,171017,,,A*6A
$GPGGA,172223.000,2458.2151,N,12126.6176,E,1,5,2.89,-13.2,M,15.2,M,,*4A
$GPRMC,172223.000,A,2458.2151,N,12126.6176,E,0.44,325.54,171017,,,A*61
$GPGGA,172640.346,2458.1950,N,12126.6122,E,1,5,1.95,84.6,M,15.2,M,,*68
$GPRMC,172640.346,A,2458.1950,N,12126.6122,E,1.95,300.36,171017,,,A*64
$GPGGA,173015.287,2458.2269,N,12126.5927,E,1,5,2.01,21.8,M,15.2,M,,*60
$GPRMC,173015.287,A,2458.2269,N,12126.5927,E,0.42,296.52,171017,,,A*64
$GPGGA,173414.267,2458.2229,N,12126.6003,E,1,5,1.97,8.7,M,15.2,M,,*5B
$GPRMC,173414.267,A,2458.2229,N,12126.6003,E,0.32,354.69,171017,,,A*67
$GPGGA,173752.227,2458.2170,N,12126.6213,E,1,5,2.59,-32.0,M,15.2,M,,*40
$GPRMC,173752.227,A,2458.2170,N,12126.6213,E,0.62,325.99,171017,,,A*62
$GPGGA,174139.000,2458.2322,N,12126.5831,E,1,5,1.84,36.5,M,15.2,M,,*68
$GPRMC,174139.000,A,2458.2322,N,12126.5831,E,1.80,272.51,171017,,,A*6F
$GPGGA,174548.000,2458.2270,N,12126.6037,E,1,5,1.85,-30.2,M,15.2,M,,*4C
$GPRMC,174548.000,A,2458.2270,N,12126.6037,E,1.86,300.12,171017,,,A*63
$GPGGA,174953.000,2458.2305,N,12126.5909,E,1,5,1.86,-4.4,M,15.2,M,,*7C
$GPRMC,174953.000,A,2458.2305,N,12126.5909,E,1.80,282.42,171017,,,A*69
$GPGGA,175339.000,2458.2379,N,12126.5628,E,1,4,1.99,-8.7,M,15.2,M,,*7C
$GPRMC,175339.000,A,2458.2379,N,12126.5628,E,0.60,213.93,171017,,,A*62
$GPGGA,180307.000,2458.2153,N,12126.6046,E,1,4,2.80,41.2,M,15.2,M,,*62
$GPRMC,180307.000,A,2458.2153,N,12126.6046,E,1.89,176.31,171017,,,A*6C
$GPGGA,180742.000,2458.2293,N,12126.6318,E,1,5,1.90,-73.0,M,15.2,M,,*4D
$GPRMC,180742.000,A,2458.2293,N,12126.6318,E,0.61,75.99,171017,,,A*59
$GPGGA,181156.876,2458.2363,N,12126.6132,E,1,5,1.91,-142.4,M,15.2,M,,*74
$GPRMC,181156.876,A,2458.2363,N,12126.6132,E,1.39,277.16,171017,,,A*6D
$GPGGA,181637.000,2458.2240,N,12126.5885,E,1,3,99.99,-35.4,M,15.2,M,,*75
$GPRMC,181637.000,A,2458.2240,N,12126.5885,E,1.46,249.06,171017,,,A*66
$GPGGA,182015.803,2458.2356,N,12126.6075,E,1,5,1.94,-133.1,M,15.2,M,,*71
$GPRMC,182015.803,A,2458.2356,N,12126.6075,E,1.24,270.12,171017,,,A*61
$GPGGA,182400.766,2458.2280,N,12126.6020,E,1,5,1.42,-34.1,M,15.2,M,,*4A
$GPRMC,182400.766,A,2458.2280,N,12126.6020,E,1.08,304.99,171017,,,A*68
$GPGGA,182754.000,2458.2291,N,12126.5877,E,1,5,1.42,-10.3,M,15.2,M,,*42
$GPRMC,182754.000,A,2458.2291,N,12126.5877,E,1.84,268.91,171017,,,A*63
$GPGGA,183131.000,2458.2337,N,12126.5872,E,1,6,1.37,-51.0,M,15.2,M,,*49
$GPRMC,183131.000,A,2458.2337,N,12126.5872,E,1.11,148.26,171017,,,A*6E
$GPGGA,183525.000,2458.2516,N,12126.5061,E,1,5,4.77,-277.0,M,15.2,M,,*73
$GPRMC,183525.000,A,2458.2516,N,12126.5061,E,2.32,121.20,171017,,,A*6B
$GPGGA,183927.000,2458.2347,N,12126.5796,E,1,4,9.29,-65.9,M,15.2,M,,*4F
$GPRMC,183927.000,A,2458.2347,N,12126.5796,E,10.07,305.42,171017,,,A*5D
$GPGGA,184407.000,2458.2654,N,12126.5213,E,1,5,1.44,-266.4,M,15.2,M,,*76
$GPRMC,184407.000,A,2458.2654,N,12126.5213,E,0.66,136.68,171017,,,A*66
$GPGGA,184742.527,2458.2751,N,12126.5080,E,1,6,1.32,-321.3,M,15.2,M,,*7F
$GPRMC,184742.527,A,2458.2751,N,12126.5080,E,0.41,149.35,171017,,,A*6D
$GPGGA,185124.491,2458.2363,N,12126.5648,E,1,6,1.43,-48.8,M,15.2,M,,*42
$GPRMC,185124.491,A,2458.2363,N,12126.5648,E,1.33,130.69,171017,,,A*62
$GPGGA,185437.454,2458.2155,N,12126.6172,E,1,4,2.60,3.6,M,15.2,M,,*5A
$GPRMC,185437.454,A,2458.2155,N,12126.6172,E,1.17,150.39,171017,,,A*63
$GPGGA,185801.000,2458.2307,N,12126.5802,E,1,5,2.03,-69.1,M,15.2,M,,*4C
$GPRMC,185801.000,A,2458.2307,N,12126.5802,E,2.97,127.53,171017,,,A*60
$GPGGA,190129.388,2458.2237,N,12126.5698,E,1,6,1.44,-13.0,M,15.2,M,,*48
$GPRMC,190129.388,A,2458.2237,N,12126.5698,E,1.43,147.73,171017,,,A*65
$GPGGA,190453.000,2458.2176,N,12126.5869,E,1,5,2.07,73.5,M,15.2,M,,*6C
$GPRMC,190453.000,A,2458.2176,N,12126.5869,E,0.50,290.77,171017,,,A*66
$GPGGA,190814.000,2458.2176,N,12126.5849,E,1,4,2.64,96.7,M,15.2,M,,*6C
$GPRMC,190814.000,A,2458.2176,N,12126.5849,E,0.89,177.51,171017,,,A*61
$GPGGA,191153.000,2458.2110,N,12126.6006,E,1,4,2.62,88.1,M,15.2,M,,*68
$GPRMC,191153.000,A,2458.2110,N,12126.6006,E,0.67,324.16,171017,,,A*6D
$GPGGA,191536.000,2458.2230,N,12126.5840,E,1,4,2.74,90.8,M,15.2,M,,*60
$GPRMC,191536.000,A,2458.2230,N,12126.5840,E,2.50,317.62,171017,,,A*67
$GPGGA,191922.000,2458.2002,N,12126.6231,E,1,6,1.57,145.6,M,15.2,M,,*52
$GPRMC,191922.000,A,2458.2002,N,12126.6231,E,5.69,297.46,171017,,,A*60
$GPGGA,192244.000,2458.1953,N,12126.6192,E,1,5,2.09,195.2,M,15.2,M,,*5C
$GPRMC,192244.000,A,2458.1953,N,12126.6192,E,0.74,280.19,171017,,,A*69
$GPGGA,192601.000,2458.2073,N,12126.6050,E,1,5,2.08,155.2,M,15.2,M,,*53
$GPRMC,192601.000,A,2458.2073,N,12126.6050,E,1.18,292.69,171017,,,A*64
$GPGGA,192929.107,2458.2103,N,12126.6031,E,1,5,2.08,131.3,M,15.2,M,,*52
$GPRMC,192929.107,A,2458.2103,N,12126.6031,E,4.22,132.13,171017,,,A*6E
$GPGGA,193301.000,2458.2119,N,12126.6057,E,1,5,9.44,147.1,M,15.2,M,,*5E
$GPRMC,193301.000,A,2458.2119,N,12126.6057,E,5.08,303.55,171017,,,A*69
$GPGGA,193634.037,2458.2015,N,12126.6254,E,1,5,2.07,197.5,M,15.2,M,,*50
$GPRMC,193634.037,A,2458.2015,N,12126.6254,E,3.55,122.84,171017,,,A*61
$GPGGA,194000.000,2458.2109,N,12126.6082,E,1,6,1.37,148.2,M,15.2,M,,*51
$GPRMC,194000.000,A,2458.2109,N,12126.6082,E,10.02,297.17,171017,,,A*51
$GPGGA,194442.000,2458.1418,N,12126.7230,E,1,6,1.50,480.7,M,15.2,M,,*5A
$GPRMC,194442.000,A,2458.1418,N,12126.7230,E,0.35,245.73,171017,,,A*67
$GPGGA,194941.000,2458.1590,N,12126.6994,E,1,7,1.27,377.7,M,15.2,M,,*5F
$GPRMC,194941.000,A,2458.1590,N,12126.6994,E,2.13,290.80,171017,,,A*6E
$GPGGA,195315.000,2458.1942,N,12126.6369,E,1,4,3.04,212.2,M,15.2,M,,*59
$GPRMC,195315.000,A,2458.1942,N,12126.6369,E,8.96,301.23,171017,,,A*68
$GPGGA,195639.000,2458.1880,N,12126.6465,E,1,5,1.77,223.4,M,15.2,M,,*55
$GPRMC,195639.000,A,2458.1880,N,12126.6465,E,3.55,298.12,171017,,,A*60
$GPGGA,200116.000,2458.2127,N,12126.6000,E,1,6,1.48,97.5,M,15.2,M,,*63
$GPRMC,200116.000,A,2458.2127,N,12126.6000,E,1.55,131.29,171017,,,A*6F
$GPGGA,200434.000,2458.2043,N,12126.6212,E,1,5,1.50,157.7,M,15.2,M,,*51
$GPRMC,200434.000,A,2458.2043,N,12126.6212,E,4.25,109.14,171017,,,A*6F
$GPGGA,200752.705,2458.2194,N,12126.6003,E,1,5,1.78,105.0,M,15.2,M,,*53
$GPRMC,200752.705,A,2458.2194,N,12126.6003,E,3.42,295.57,171017,,,A*60
$GPGGA,201115.000,2458.2267,N,12126.5748,E,1,6,1.76,47.0,M,15.2,M,,*6B
$GPRMC,201115.000,A,2458.2267,N,12126.5748,E,3.31,301.75,171017,,,A*6A
$GPGGA,201435.000,2458.2169,N,12126.5965,E,1,5,1.64,11.3,M,15.2,M,,*60
$GPRMC,201435.000,A,2458.2169,N,12126.5965,E,1.10,50.63,171017,,,A*50
$GPGGA,201800.000,2458.2279,N,12126.5778,E,1,4,2.14,33.8,M,15.2,M,,*64
$GPRMC,201800.000,A,2458.2279,N,12126.5778,E,0.64,304.77,171017,,,A*6F
$GPGGA,202114.570,2458.2332,N,12126.5721,E,1,5,2.10,77.2,M,15.2,M,,*64
$GPRMC,202114.570,A,2458.2332,N,12126.5721,E,3.94,272.79,171017,,,A*62
$GPGGA,202441.000,2458.2294,N,12126.5754,E,1,4,2.12,45.8,M,15.2,M,,*64
$GPRMC,202441.000,A,2458.2294,N,12126.5754,E,0.75,177.59,171017,,,A*62
$GPGGA,202805.000,2458.2332,N,12126.5807,E,1,3,2.95,54.3,M,15.2,M,,*6F
$GPRMC,202805.000,A,2458.2332,N,12126.5807,E,2.26,272.67,171017,,,A*65
$GPGGA,203130.485,2458.2107,N,12126.5949,E,1,6,1.65,65.6,M,15.2,M,,*69
$GPRMC,203130.485,A,2458.2107,N,12126.5949,E,1.27,279.69,171017,,,A*6A
$GPGGA,203449.451,2458.2300,N,12126.5703,E,1,6,1.56,29.3,M,15.2,M,,*63
$GPRMC,203449.451,A,2458.2300,N,12126.5703,E,0.89,275.99,171017,,,A*6B
$GPGGA,203809.000,2458.2274,N,12126.5692,E,1,5,2.01,28.7,M,15.2,M,,*67
$GPRMC,203809.000,A,2458.2274,N,12126.5692,E,0.55,312.64,171017,,,A*6B
$GPGGA,204148.000,2458.2091,N,12126.6006,E,1,6,1.70,90.5,M,15.2,M,,*6A
$GPRMC,204148.000,A,2458.2091,N,12126.6006,E,0.52,46.68,171017,,,A*58
$GPGGA,204510.331,2458.2347,N,12126.5681,E,1,5,1.99,39.5,M,15.2,M,,*67
$GPRMC,204510.331,A,2458.2347,N,12126.5681,E,0.15,277.17,171017,,,A*69
$GPGGA,204853.000,2458.2523,N,12126.5106,E,1,4,2.72,-70.5,M,15.2,M,,*47
$GPRMC,204853.000,A,2458.2523,N,12126.5106,E,0.80,355.55,171017,,,A*65
$GPGGA,205235.000,2458.2120,N,12126.5826,E,1,5,2.49,78.2,M,15.2,M,,*6B
$GPRMC,205235.000,A,2458.2120,N,12126.5826,E,0.35,73.50,171017,,,A*5E
$GPGGA,205709.000,2458.2068,N,12126.5748,E,1,6,1.88,71.4,M,15.2,M,,*69
$GPRMC,205709.000,A,2458.2068,N,12126.5748,E,2.05,20.27,171017,,,A*59
$GPGGA,210020.177,2458.2007,N,12126.5994,E,1,5,2.44,55.6,M,15.2,M,,*62
$GPRMC,210020.177,A,2458.2007,N,12126.5994,E,0.36,298.23,171017,,,A*61
$GPGGA,210351.161,2458.2301,N,12126.5628,E,1,5,3.25,84.6,M,15.2,M,,*67
$GPRMC,210351.161,A,2458.2301,N,12126.5628,E,0.29,10.85,171017,,,A*5E
$GPGGA,210702.110,2458.2308,N,12126.5732,E,1,5,3.33,79.4,M,15.2,M,,*67
$GPRMC,210702.110,A,2458.2308,N,12126.5732,E,0.20,301.88,171017,,,A*6E
$GPGGA,211026.094,2458.2235,N,12126.5776,E,1,6,1.89,25.7,M,15.2,M,,*6F
$GPRMC,211026.094,A,2458.2235,N,12126.5776,E,3.31,91.89,171017,,,A*54
$GPGGA,211355.060,2458.2230,N,12126.5902,E,1,5,3.51,49.1,M,15.2,M,,*63
$GPRMC,211355.060,A,2458.2230,N,12126.5902,E,0.14,59.60,171017,,,A*57
$GPGGA,211709.009,2458.2296,N,12126.5811,E,1,5,3.61,75.7,M,15.2,M,,*64
$GPRMC,211709.009,A,2458.2296,N,12126.5811,E,0.56,56.44,171017,,,A*55
$GPGGA,212020.993,2458.2179,N,12126.5918,E,1,5,3.70,34.3,M,15.2,M,,*6A
$GPRMC,212020.993,A,2458.2179,N,12126.5918,E,0.37,103.10,171017,,,A*6D
$GPGGA,212332.960,2458.2236,N,12126.5855,E,1,6,1.93,53.1,M,15.2,M,,*69
$GPRMC,212332.960,A,2458.2236,N,12126.5855,E,0.28,216.38,171017,,,A*62
$GPGGA,212655.000,2458.2229,N,12126.5755,E,1,6,2.63,10.4,M,15.2,M,,*6D
$GPRMC,212655.000,A,2458.2229,N,12126.5755,E,0.45,147.62,171017,,,A*6B
$GPGGA,213015.000,2458.2652,N,12126.5400,E,1,4,16.16,10.6,M,15.2,M,,*52
$GPRMC,213015.000,A,2458.2652,N,12126.5400,E,1.86,97.44,171017,,,A*55
$GPGGA,213328.000,2458.2409,N,12126.5810,E,1,5,3.10,11.0,M,15.2,M,,*6A
$GPRMC,213328.000,A,2458.2409,N,12126.5810,E,3.67,309.68,171017,,,A*6E
$GPGGA,213635.813,2458.2313,N,12126.5914,E,1,5,3.22,58.6,M,15.2,M,,*6A
$GPRMC,213635.813,A,2458.2313,N,12126.5914,E,1.09,94.27,171017,,,A*52
$GPGGA,213951.781,2458.2072,N,12126.5913,E,1,6,2.09,48.6,M,15.2,M,,*6A
$GPRMC,213951.781,A,2458.2072,N,12126.5913,E,0.27,227.08,171017,,,A*62
$GPGGA,214308.748,2458.2248,N,12126.5784,E,1,5,3.50,53.1,M,15.2,M,,*66
$GPRMC,214308.748,A,2458.2248,N,12126.5784,E,4.45,294.33,171017,,,A*6D
$GPGGA,214625.731,2458.2294,N,12126.5592,E,1,4,7.04,93.3,M,15.2,M,,*6C
$GPRMC,214625.731,A,2458.2294,N,12126.5592,E,4.26,93.95,171017,,,A*51
$GPGGA,214938.698,2458.2307,N,12126.5866,E,1,4,7.27,46.6,M,15.2,M,,*6C
$GPRMC,214938.698,A,2458.2307,N,12126.5866,E,1.41,303.33,171017,,,A*6F
$GPGGA,215252.647,2458.2102,N,12126.6326,E,1,5,2.35,-22.1,M,15.2,M,,*4C
$GPRMC,215252.647,A,2458.2102,N,12126.6326,E,3.45,286.16,171017,,,A*6D
$GPGGA,215608.634,2458.2270,N,12126.5835,E,1,4,7.86,64.7,M,15.2,M,,*6A
$GPRMC,215608.634,A,2458.2270,N,12126.5835,E,2.93,119.36,171017,,,A*63
$GPGGA,215922.000,2458.2373,N,12126.5448,E,1,4,8.21,163.9,M,15.2,M,,*52
$GPRMC,215922.000,A,2458.2373,N,12126.5448,E,0.89,241.56,171017,,,A*60
$GPGGA,220225.552,2458.2292,N,12126.5538,E,1,4,8.59,65.9,M,15.2,M,,*6A
$GPRMC,220225.552,A,2458.2292,N,12126.5538,E,0.28,194.81,171017,,,A*6A
$GPGGA,220528.522,2458.2091,N,12126.6314,E,1,4,9.04,67.7,M,15.2,M,,*68
$GPRMC,220528.522,A,2458.2091,N,12126.6314,E,0.19,32.96,171017,,,A*54
$GPGGA,220845.491,2458.2028,N,12126.6043,E,1,6,2.14,-62.3,M,15.2,M,,*40
$GPRMC,220845.491,A,2458.2028,N,12126.6043,E,2.40,307.04,171017,,,A*68
$GPGGA,221156.474,2458.2039,N,12126.5915,E,1,4,3.95,67.1,M,15.2,M,,*68
$GPRMC,221156.474,A,2458.2039,N,12126.5915,E,0.74,298.45,171017,,,A*67
$GPGGA,221510.000,2458.2496,N,12126.5368,E,1,4,11.09,96.6,M,15.2,M,,*57
$GPRMC,221510.000,A,2458.2496,N,12126.5368,E,0.36,321.69,171017,,,A*6C
$GPGGA,221819.364,2458.2008,N,12126.6128,E,1,5,2.34,64.9,M,15.2,M,,*6B
$GPRMC,221819.364,A,2458.2008,N,12126.6128,E,0.30,279.16,171017,,,A*6D
$GPGGA,222147.000,2458.1773,N,12126.5639,E,1,6,4.62,-222.4,M,15.2,M,,*71
$GPRMC,222147.000,A,2458.1773,N,12126.5639,E,0.94,356.16,171017,,,A*63
$GPGGA,222454.301,2458.1998,N,12126.5876,E,1,5,2.36,-17.7,M,15.2,M,,*49
$GPRMC,222454.301,A,2458.1998,N,12126.5876,E,0.83,264.87,171017,,,A*66
$GPGGA,222820.312,2458.1897,N,12126.7372,E,1,4,17.42,191.7,M,15.2,M,,*63
$GPRMC,222820.312,A,2458.1897,N,12126.7372,E,0.35,346.27,171017,,,A*6E
$GPGGA,223132.277,2458.3247,N,12126.3815,E,1,4,19.96,119.6,M,15.2,M,,*67
$GPRMC,223132.277,A,2458.3247,N,12126.3815,E,0.40,302.65,171017,,,A*68
$GPGGA,223439.188,2458.1664,N,12126.6942,E,1,5,2.39,91.1,M,15.2,M,,*63
$GPRMC,223439.188,A,2458.1664,N,12126.6942,E,0.35,333.06,171017,,,A*61
$GPGGA,223755.214,2458.1716,N,12126.6953,E,1,5,2.41,79.6,M,15.2,M,,*66
$GPRMC,223755.214,A,2458.1716,N,12126.6953,E,0.59,326.59,171017,,,A*6E
$GPGGA,224100.165,2458.2460,N,12126.5588,E,1,4,22.00,88.7,M,15.2,M,,*53
$GPRMC,224100.165,A,2458.2460,N,12126.5588,E,0.75,17.10,171017,,,A*50
$GPGGA,224418.134,2458.2381,N,12126.5419,E,1,4,18.76,39.0,M,15.2,M,,*5F
$GPRMC,224418.134,A,2458.2381,N,12126.5419,E,0.19,101.44,171017,,,A*64
$GPGGA,224801.000,2458.2468,N,12126.5574,E,1,5,4.42,77.1,M,15.2,M,,*67
$GPRMC,224801.000,A,2458.2468,N,12126.5574,E,2.26,134.72,171017,,,A*61
$GPGGA,225104.006,2458.2232,N,12126.6009,E,1,5,4.76,135.9,M,15.2,M,,*51
$GPRMC,225104.006,A,2458.2232,N,12126.6009,E,4.19,145.28,171017,,,A*6C
$GPGGA,225427.000,2458.2434,N,12126.5570,E,1,6,1.93,61.7,M,15.2,M,,*68
$GPRMC,225427.000,A,2458.2434,N,12126.5570,E,1.20,149.21,171017,,,A*6C
$GPGGA,225741.000,2458.2379,N,12126.5634,E,1,6,1.99,62.5,M,15.2,M,,*6D
$GPRMC,225741.000,A,2458.2379,N,12126.5634,E,0.74,280.44,171017,,,A*67
$GPGGA,230045.970,2458.2296,N,12126.5849,E,1,5,2.44,13.7,M,15.2,M,,*64
$GPRMC,230045.970,A,2458.2296,N,12126.5849,E,0.59,171.65,171017,,,A*6B
$GPGGA,230356.952,2458.2375,N,12126.5607,E,1,6,2.10,62.4,M,15.2,M,,*6A
$GPRMC,230356.952,A,2458.2375,N,12126.5607,E,0.62,336.96,171017,,,A*67
$GPGGA,230715.000,2458.2411,N,12126.5560,E,1,6,2.15,66.5,M,15.2,M,,*60
$GPRMC,230715.000,A,2458.2411,N,12126.5560,E,0.76,274.74,171017,,,A*63
$GPGGA,231017.871,2458.2672,N,12126.4990,E,1,4,5.95,149.4,M,15.2,M,,*5F
$GPRMC,231017.871,A,2458.2672,N,12126.4990,E,4.62,123.83,171017,,,A*64
$GPGGA,231337.000,2458.2366,N,12126.5550,E,1,6,2.25,75.2,M,15.2,M,,*67
$GPRMC,231337.000,A,2458.2366,N,12126.5550,E,0.95,62.05,171017,,,A*5C
$GPGGA,231652.000,2458.2437,N,12126.5493,E,1,5,2.34,75.1,M,15.2,M,,*6C
$GPRMC,231652.000,A,2458.2437,N,12126.5493,E,0.18,33.82,171017,,,A*59
$GPGGA,232002.000,2458.1826,N,12126.6403,E,1,7,1.73,16.4,M,15.2,M,,*6B
$GPRMC,232002.000,A,2458.1826,N,12126.6403,E,1.14,120.69,171017,,,A*67
$GPGGA,232311.702,2458.2221,N,12126.6008,E,1,6,2.36,17.8,M,15.2,M,,*60
$GPRMC,232311.702,A,2458.2221,N,12126.6008,E,0.69,316.12,171017,,,A*62
$GPGGA,232636.000,2458.2312,N,12126.5747,E,1,6,2.38,43.6,M,15.2,M,,*6A
$GPRMC,232636.000,A,2458.2312,N,12126.5747,E,1.72,100.33,171017,,,A*64
$GPGGA,232952.000,2458.1983,N,12126.6324,E,1,6,3.04,43.2,M,15.2,M,,*6E
$GPRMC,232952.000,A,2458.1983,N,12126.6324,E,0.28,35.50,171017,,,A*56
$GPGGA,233315.000,2458.2357,N,12126.5627,E,1,6,2.40,53.0,M,15.2,M,,*61
$GPRMC,233315.000,A,2458.2357,N,12126.5627,E,0.76,316.13,171017,,,A*65
$GPGGA,233625.610,2458.2486,N,12126.5455,E,1,6,2.40,5.0,M,15.2,M,,*5F
$GPRMC,233625.610,A,2458.2486,N,12126.5455,E,0.77,152.92,171017,,,A*62
$GPGGA,233949.000,2458.2352,N,12126.5572,E,1,6,2.40,48.6,M,15.2,M,,*68
$GPRMC,233949.000,A,2458.2352,N,12126.5572,E,1.71,115.52,171017,,,A*62
$GPGGA,234313.000,2458.2140,N,12126.6234,E,1,7,1.90,47.0,M,15.2,M,,*6B
$GPRMC,234313.000,A,2458.2140,N,12126.6234,E,0.08,20.39,171017,,,A*52
$GPGGA,234701.000,2458.2304,N,12126.5818,E,1,6,3.55,51.9,M,15.2,M,,*6D
$GPRMC,234701.000,A,2458.2304,N,12126.5818,E,2.71,305.94,171017,,,A*6F
$GPGGA,235008.454,2458.2188,N,12126.6070,E,1,6,3.46,53.3,M,15.2,M,,*6E
$GPRMC,235008.454,A,2458.2188,N,12126.6070,E,6.18,279.09,171017,,,A*63
$GPGGA,235323.000,2458.2266,N,12126.5868,E,1,5,3.95,56.0,M,15.2,M,,*6B
$GPRMC,235323.000,A,2458.2266,N,12126.5868,E,2.24,2.34,171017,,,A*66
$GPGGA,235646.000,2458.2221,N,12126.6078,E,1,6,3.28,51.4,M,15.2,M,,*62
$GPRMC,235646.000,A,2458.2221,N,12126.6078,E,7.53,288.68,171017,,,A*65
$GPGGA,235952.405,2458.2331,N,12126.6129,E,1,6,3.20,51.5,M,15.2,M,,*65
$GPRMC,235952.405,A,2458.2331,N,12126.6129,E,0.91,13.59,171017,,,A*50
$GPGGA,000300.324,2458.2158,N,12126.5928,E,1,6,3.13,52.7,M,15.2,M,,*6E
$GPRMC,000300.324,A,2458.2158,N,12126.5928,E,2.28,92.31,181017,,,A*52
$GPGGA,000614.328,2458.2483,N,12126.5835,E,1,6,3.05,54.4,M,15.2,M,,*6E
$GPRMC,000614.328,A,2458.2483,N,12126.5835,E,12.20,281.19,181017,,,A*53
$GPGGA,000932.295,2458.2032,N,12126.7007,E,1,5,3.48,163.7,M,15.2,M,,*5B
$GPRMC,000932.295,A,2458.2032,N,12126.7007,E,0.81,11.25,181017,,,A*56
$GPGGA,001241.241,2458.2184,N,12126.5883,E,1,6,2.91,43.7,M,15.2,M,,*63
$GPRMC,001241.241,A,2458.2184,N,12126.5883,E,5.60,284.23,181017,,,A*69
$GPGGA,001544.221,2458.2365,N,12126.6311,E,1,5,2.91,97.7,M,15.2,M,,*63
$GPRMC,001544.221,A,2458.2365,N,12126.6311,E,9.69,286.86,181017,,,A*6B
$GPGGA,001905.000,2458.2294,N,12126.5662,E,1,5,2.84,33.6,M,15.2,M,,*6D
$GPRMC,001905.000,A,2458.2294,N,12126.5662,E,1.76,271.47,181017,,,A*6D
$GPGGA,002207.150,2458.2224,N,12126.5755,E,1,5,2.79,33.6,M,15.2,M,,*6F
$GPRMC,002207.150,A,2458.2224,N,12126.5755,E,1.01,221.71,181017,,,A*6D
$GPGGA,002531.000,2458.2304,N,12126.5824,E,1,7,2.50,52.1,M,15.2,M,,*6A
$GPRMC,002531.000,A,2458.2304,N,12126.5824,E,2.21,287.63,181017,,,A*6F
$GPGGA,002841.090,2458.2314,N,12126.5832,E,1,5,2.69,52.1,M,15.2,M,,*67
$GPRMC,002841.090,A,2458.2314,N,12126.5832,E,1.38,49.24,181017,,,A*52
$GPGGA,003149.092,2458.2391,N,12126.5642,E,1,7,2.42,46.1,M,15.2,M,,*6F
$GPRMC,003149.092,A,2458.2391,N,12126.5642,E,0.63,227.69,181017,,,A*68
$GPGGA,003458.040,2458.2317,N,12126.5792,E,1,6,2.41,42.6,M,15.2,M,,*66
$GPRMC,003458.040,A,2458.2317,N,12126.5792,E,3.69,303.82,181017,,,A*6B
$GPGGA,003808.008,2458.2459,N,12126.5550,E,1,6,2.38,25.4,M,15.2,M,,*6F
$GPRMC,003808.008,A,2458.2459,N,12126.5550,E,2.92,292.66,181017,,,A*69
$GPGGA,004117.950,2458.2233,N,12126.5503,E,1,5,2.43,11.0,M,15.2,M,,*6B
$GPRMC,004117.950,A,2458.2233,N,12126.5503,E,3.82,307.32,181017,,,A*6D
$GPGGA,004434.000,2458.2270,N,12126.5822,E,1,6,2.41,73.2,M,15.2,M,,*6D
$GPRMC,004434.000,A,2458.2270,N,12126.5822,E,2.61,88.12,181017,,,A*56
$GPGGA,004745.000,2458.2267,N,12126.6063,E,1,3,4.81,73.5,M,15.2,M,,*68
$GPRMC,004745.000,A,2458.2267,N,12126.6063,E,5.04,283.35,181017,,,A*63
$GPGGA,005055.880,2458.2491,N,12126.5484,E,1,5,2.43,39.0,M,15.2,M,,*6B
$GPRMC,005055.880,A,2458.2491,N,12126.5484,E,0.47,61.19,181017,,,A*57
$GPGGA,005411.000,2458.2345,N,12126.5375,E,1,5,2.60,19.9,M,15.2,M,,*62
$GPRMC,005411.000,A,2458.2345,N,12126.5375,E,0.88,102.80,181017,,,A*63
$GPGGA,005717.771,2458.2136,N,12126.5709,E,6,3,3.57,19.9,M,15.2,M,,*6B
$GPRMC,005719.762,A,2458.2053,N,12126.5738,E,1.78,345.31,181017,,,A*67
$GPGGA,010026.711,2458.2048,N,12126.6039,E,1,4,2.78,79.9,M,15.2,M,,*69
$GPRMC,010026.711,A,2458.2048,N,12126.6039,E,0.56,235.43,181017,,,A*6D
$GPGGA,010340.000,2458.2360,N,12126.5938,E,1,5,2.53,19.8,M,15.2,M,,*60
$GPRMC,010340.000,A,2458.2360,N,12126.5938,E,2.16,78.66,181017,,,A*51
$GPGGA,010707.000,2458.2428,N,12126.5643,E,1,5,2.51,13.2,M,15.2,M,,*6D
$GPRMC,010707.000,A,2458.2428,N,12126.5643,E,4.11,74.34,181017,,,A*54
$GPGGA,011021.000,2458.2316,N,12126.5807,E,1,5,2.49,55.6,M,15.2,M,,*64
$GPRMC,011021.000,A,2458.2316,N,12126.5807,E,2.58,80.28,181017,,,A*5F
$GPGGA,011334.000,2458.2393,N,12126.5620,E,1,6,2.40,-35.4,M,15.2,M,,*46
$GPRMC,011334.000,A,2458.2393,N,12126.5620,E,7.11,293.44,181017,,,A*6C
$GPGGA,011656.605,2458.2346,N,12126.5804,E,1,5,3.84,60.8,M,15.2,M,,*6F
$GPRMC,011656.605,A,2458.2346,N,12126.5804,E,1.93,34.76,181017,,,A*5C
$GPGGA,012007.588,2458.2945,N,12126.5350,E,1,5,2.46,56.1,M,15.2,M,,*68
$GPRMC,012007.588,A,2458.2945,N,12126.5350,E,2.25,72.02,181017,,,A*57
$GPGGA,012322.000,2458.2318,N,12126.5811,E,1,5,2.57,69.1,M,15.2,M,,*69
$GPRMC,012322.000,A,2458.2318,N,12126.5811,E,2.30,272.02,181017,,,A*6C
$GPGGA,012631.507,2458.2387,N,12126.5703,E,1,4,2.64,42.5,M,15.2,M,,*6A
$GPRMC,012631.507,A,2458.2387,N,12126.5703,E,4.95,90.42,181017,,,A*50
$GPGGA,012958.000,2458.2112,N,12126.4729,E,1,4,2.64,-86.0,M,15.2,M,,*4F
$GPRMC,012958.000,A,2458.2112,N,12126.4729,E,6.57,74.24,181017,,,A*53
$GPGGA,013345.000,2458.2382,N,12126.5947,E,1,4,2.63,80.4,M,15.2,M,,*6C
$GPRMC,013345.000,A,2458.2382,N,12126.5947,E,0.84,261.66,181017,,,A*60
$GPGGA,013725.000,2458.2304,N,12126.5697,E,1,5,1.91,25.7,M,15.2,M,,*61
$GPRMC,013725.000,A,2458.2304,N,12126.5697,E,0.36,93.61,181017,,,A*5F
$GPGGA,014038.367,2458.2332,N,12126.5691,E,1,4,2.62,-7.4,M,15.2,M,,*7C
$GPRMC,014038.367,A,2458.2332,N,12126.5691,E,1.85,269.86,181017,,,A*65
$GPGGA,014417.351,2458.2465,N,12126.5293,E,1,4,2.62,-58.1,M,15.2,M,,*4C
$GPRMC,014417.351,A,2458.2465,N,12126.5293,E,0.11,63.68,181017,,,A*5E
$GPGGA,014742.314,2458.2364,N,12126.5587,E,1,4,2.63,29.7,M,15.2,M,,*66
$GPRMC,014742.314,A,2458.2364,N,12126.5587,E,0.07,346.07,181017,,,A*62
$GPGGA,015110.280,2458.2345,N,12126.5598,E,1,4,2.63,16.9,M,15.2,M,,*65
$GPRMC,015110.280,A,2458.2345,N,12126.5598,E,1.04,207.40,181017,,,A*66
$GPGGA,015429.000,2458.2289,N,12126.5806,E,1,4,2.64,28.5,M,15.2,M,,*6D
$GPRMC,015429.000,A,2458.2289,N,12126.5806,E,1.90,279.68,181017,,,A*66
$GPGGA,015753.197,2458.2348,N,12126.5690,E,1,4,2.65,15.3,M,15.2,M,,*68
$GPRMC,015753.197,A,2458.2348,N,12126.5690,E,0.66,259.33,181017,,,A*6E
$GPGGA,020150.000,2458.2358,N,12126.5528,E,1,5,2.54,24.3,M,15.2,M,,*64
$GPRMC,020150.000,A,2458.2358,N,12126.5528,E,0.57,308.45,181017,,,A*65
$GPGGA,020504.123,2458.2402,N,12126.5410,E,1,4,3.58,6.5,M,15.2,M,,*59
$GPRMC,020504.123,A,2458.2402,N,12126.5410,E,0.57,199.55,181017,,,A*69
$GPGGA,020833.107,2458.2298,N,12126.5892,E,1,4,3.88,8.0,M,15.2,M,,*53
$GPRMC,020833.107,A,2458.2298,N,12126.5892,E,0.51,321.50,181017,,,A*67
$GPGGA,021147.000,2458.2398,N,12126.5596,E,1,4,4.20,50.2,M,15.2,M,,*6C
$GPRMC,021147.000,A,2458.2398,N,12126.5596,E,2.23,128.95,181017,,,A*67
$GPGGA,021502.024,2458.2664,N,12126.4276,E,1,6,2.31,-119.7,M,15.2,M,,*71
$GPRMC,021502.024,A,2458.2664,N,12126.4276,E,0.58,84.97,181017,,,A*51
$GPGGA,021817.000,2458.2300,N,12126.5882,E,1,5,2.75,30.4,M,15.2,M,,*6E
$GPRMC,021817.000,A,2458.2300,N,12126.5882,E,1.52,287.57,181017,,,A*6F
$GPGGA,022149.959,2458.2312,N,12126.5635,E,1,5,3.47,29.1,M,15.2,M,,*66
$GPRMC,022149.959,A,2458.2312,N,12126.5635,E,2.95,278.48,181017,,,A*6C
$GPGGA,022504.000,2458.2418,N,12126.5617,E,1,3,6.14,44.8,M,15.2,M,,*64
$GPRMC,022504.000,A,2458.2418,N,12126.5617,E,4.19,114.47,181017,,,A*6D
$GPGGA,022823.000,2458.2383,N,12126.5648,E,1,4,6.23,37.4,M,15.2,M,,*68
$GPRMC,022823.000,A,2458.2383,N,12126.5648,E,0.42,31.93,181017,,,A*5F
$GPGGA,023133.718,2458.2096,N,12126.6738,E,1,5,2.79,92.8,M,15.2,M,,*64
$GPRMC,023133.718,A,2458.2096,N,12126.6738,E,0.56,150.73,181017,,,A*67
$GPGGA,023446.000,2458.2350,N,12126.5660,E,1,4,7.01,47.7,M,15.2,M,,*67
$GPRMC,023446.000,A,2458.2350,N,12126.5660,E,2.53,296.87,181017,,,A*6D
$GPGGA,023758.000,2458.2404,N,12126.5586,E,1,3,7.99,68.4,M,15.2,M,,*6E
$GPRMC,023758.000,A,2458.2404,N,12126.5586,E,3.53,138.60,181017,,,A*63
$GPGGA,024111.000,2458.2177,N,12126.5885,E,1,5,2.78,11.0,M,15.2,M,,*6B
$GPRMC,024111.000,A,2458.2177,N,12126.5885,E,0.22,183.36,181017,,,A*66
$GPGGA,024441.730,2458.2302,N,12126.5682,E,1,4,7.82,26.0,M,15.2,M,,*63
$GPRMC,024441.730,A,2458.2302,N,12126.5682,E,2.96,279.11,181017,,,A*65
$GPGGA,024830.711,2458.2325,N,12126.5574,E,1,4,4.06,23.2,M,15.2,M,,*6D
$GPRMC,024830.711,A,2458.2325,N,12126.5574,E,1.65,288.65,181017,,,A*61
$GPGGA,025209.000,2458.2344,N,12126.5445,E,1,4,4.24,23.2,M,15.2,M,,*6F
$GPRMC,025209.000,A,2458.2344,N,12126.5445,E,1.27,262.86,181017,,,A*6C
$GPGGA,025615.000,2458.2371,N,12126.5562,E,1,4,4.46,43.5,M,15.2,M,,*61
$GPRMC,025615.000,A,2458.2371,N,12126.5562,E,6.79,279.49,181017,,,A*62
$GPGGA,030024.000,2458.2217,N,12126.6295,E,1,4,1.99,178.0,M,15.2,M,,*57
$GPRMC,030024.000,A,2458.2217,N,12126.6295,E,0.95,282.14,181017,,,A*67
$GPGGA,030516.000,2458.2291,N,12126.6072,E,1,4,5.00,136.2,M,15.2,M,,*5A
$GPRMC,030516.000,A,2458.2291,N,12126.6072,E,1.02,89.30,181017,,,A*56
$GPGGA,030947.000,2458.2391,N,12126.5176,E,1,4,5.29,-10.6,M,15.2,M,,*42
$GPRMC,030947.000,A,2458.2391,N,12126.5176,E,5.03,278.19,181017,,,A*6B
$GPGGA,031440.000,2458.2338,N,12126.5700,E,1,4,5.61,33.9,M,15.2,M,,*62
$GPRMC,031440.000,A,2458.2338,N,12126.5700,E,1.65,262.83,181017,,,A*68
$GPGGA,031819.000,2458.2240,N,12126.6138,E,1,5,1.33,104.0,M,15.2,M,,*5C
$GPRMC,031819.000,A,2458.2240,N,12126.6138,E,0.47,51.50,181017,,,A*55
$GPGGA,032129.434,2458.2153,N,12126.6301,E,1,5,1.20,93.7,M,15.2,M,,*65
$GPRMC,032129.434,A,2458.2153,N,12126.6301,E,0.57,191.75,181017,,,A*6D
$GPGGA,032456.000,2458.2289,N,12126.6197,E,1,4,1.47,124.0,M,15.2,M,,*58
$GPRMC,032456.000,A,2458.2289,N,12126.6197,E,1.41,28.09,181017,,,A*54
$GPGGA,032835.000,2458.2384,N,12126.6307,E,1,5,1.18,101.0,M,15.2,M,,*5A
$GPRMC,032835.000,A,2458.2384,N,12126.6307,E,0.43,358.29,181017,,,A*6F
$GPGGA,033206.256,2458.2331,N,12126.5720,E,1,4,3.07,52.2,M,15.2,M,,*64
$GPRMC,033206.256,A,2458.2331,N,12126.5720,E,1.69,115.88,181017,,,A*60
$GPGGA,033529.237,2458.2323,N,12126.5655,E,1,4,2.99,73.6,M,15.2,M,,*68
$GPRMC,033529.237,A,2458.2323,N,12126.5655,E,0.81,38.18,181017,,,A*5D
$GPGGA,033902.203,2458.2230,N,12126.5711,E,1,4,2.91,79.4,M,15.2,M,,*68
$GPRMC,033902.203,A,2458.2230,N,12126.5711,E,1.02,0.73,181017,,,A*61
$GPGGA,034235.168,2458.2348,N,12126.5520,E,1,4,2.85,79.6,M,15.2,M,,*67
$GPRMC,034235.168,A,2458.2348,N,12126.5520,E,1.75,2.24,181017,,,A*69
$GPGGA,034608.132,2458.2315,N,12126.5698,E,1,4,2.78,58.5,M,15.2,M,,*68
$GPRMC,034608.132,A,2458.2315,N,12126.5698,E,0.40,68.52,181017,,,A*5E
$GPGGA,034930.097,2458.2302,N,12126.5737,E,1,5,2.59,65.7,M,15.2,M,,*6E
$GPRMC,034930.097,A,2458.2302,N,12126.5737,E,0.71,330.79,181017,,,A*63
$GPGGA,035244.063,2458.2325,N,12126.5662,E,1,4,2.69,63.6,M,15.2,M,,*6D
$GPRMC,035244.063,A,2458.2325,N,12126.5662,E,2.90,311.52,181017,,,A*62
$GPGGA,035624.000,2458.2268,N,12126.6143,E,1,5,2.59,67.2,M,15.2,M,,*67
$GPRMC,035624.000,A,2458.2268,N,12126.6143,E,0.91,250.72,181017,,,A*6F
$GPGGA,035937.978,2458.2137,N,12126.6176,E,1,5,2.19,89.4,M,15.2,M,,*61
$GPRMC,035937.978,A,2458.2137,N,12126.6176,E,0.77,319.70,181017,,,A*6D
$GPGGA,040249.962,2458.2060,N,12126.6268,E,1,4,2.75,113.9,M,15.2,M,,*51
$GPRMC,040249.962,A,2458.2060,N,12126.6268,E,0.99,324.26,181017,,,A*64
$GPGGA,040617.930,2458.2212,N,12126.6126,E,1,5,1.13,85.8,M,15.2,M,,*6A
$GPRMC,040617.930,A,2458.2212,N,12126.6126,E,4.20,283.81,181017,,,A*65
$GPGGA,040941.879,2458.2312,N,12126.5890,E,1,4,2.78,40.7,M,15.2,M,,*65
$GPRMC,040941.879,A,2458.2312,N,12126.5890,E,0.35,58.63,181017,,,A*5B
$GPGGA,041256.861,2458.2329,N,12126.5847,E,1,5,2.47,69.7,M,15.2,M,,*64
$GPRMC,041256.861,A,2458.2329,N,12126.5847,E,0.01,16.80,181017,,,A*5C
$GPGGA,041622.828,2458.2332,N,12126.5686,E,1,5,2.43,42.2,M,15.2,M,,*6F
$GPRMC,041622.828,A,2458.2332,N,12126.5686,E,2.23,276.34,181017,,,A*66
$GPGGA,041937.794,2458.2255,N,12126.5770,E,1,4,2.82,54.8,M,15.2,M,,*65
$GPRMC,041937.794,A,2458.2255,N,12126.5770,E,0.90,331.93,181017,,,A*68
$GPGGA,042249.762,2458.1924,N,12126.6458,E,1,4,2.84,95.7,M,15.2,M,,*6D
$GPRMC,042249.762,A,2458.1924,N,12126.6458,E,1.54,315.43,181017,,,A*66
$GPGGA,042601.730,2458.2322,N,12126.5704,E,1,4,2.84,34.9,M,15.2,M,,*61
$GPRMC,042601.730,A,2458.2322,N,12126.5704,E,2.20,304.64,181017,,,A*6A
$GPGGA,042913.698,2458.1785,N,12126.6604,E,1,4,2.85,111.4,M,15.2,M,,*5C
$GPRMC,042913.698,A,2458.1785,N,12126.6604,E,0.87,211.96,181017,,,A*6A
$GPGGA,043226.666,2458.2335,N,12126.5772,E,1,4,2.86,31.0,M,15.2,M,,*6A
$GPRMC,043226.666,A,2458.2335,N,12126.5772,E,3.51,303.50,181017,,,A*68
$GPGGA,043537.633,2458.2288,N,12126.5694,E,1,4,2.86,45.5,M,15.2,M,,*65
$GPRMC,043537.633,A,2458.2288,N,12126.5694,E,1.53,306.41,181017,,,A*64
$GPGGA,043900.601,2458.2113,N,12126.6085,E,1,4,3.60,67.7,M,15.2,M,,*63
$GPRMC,043900.601,A,2458.2113,N,12126.6085,E,0.61,326.88,181017,,,A*6E
$GPGGA,044214.568,2458.2285,N,12126.5812,E,1,4,3.51,68.7,M,15.2,M,,*62
$GPRMC,044214.568,A,2458.2285,N,12126.5812,E,1.53,275.43,181017,,,A*62
$GPGGA,044627.000,2458.2177,N,12126.6027,E,1,4,3.34,34.1,M,15.2,M,,*62
$GPRMC,044627.000,A,2458.2177,N,12126.6027,E,3.43,296.95,181017,,,A*6B
$GPGGA,044956.000,2458.2291,N,12126.5732,E,1,4,3.19,39.5,M,15.2,M,,*66
$GPRMC,044956.000,A,2458.2291,N,12126.5732,E,2.76,314.24,181017,,,A*6F
$GPGGA,045325.442,2458.2271,N,12126.5800,E,1,4,3.03,26.1,M,15.2,M,,*6A
$GPRMC,045325.442,A,2458.2271,N,12126.5800,E,1.25,293.16,181017,,,A*68
$GPGGA,045638.424,2458.2172,N,12126.5855,E,1,4,2.90,45.7,M,15.2,M,,*6B
$GPRMC,045638.424,A,2458.2172,N,12126.5855,E,3.10,140.84,181017,,,A*63
$GPGGA,045949.391,2458.2149,N,12126.5954,E,1,4,2.76,27.5,M,15.2,M,,*6D
$GPRMC,045949.391,A,2458.2149,N,12126.5954,E,0.82,327.30,181017,,,A*6F
$GPGGA,050301.359,2458.2142,N,12126.5931,E,1,4,2.64,16.0,M,15.2,M,,*67
$GPRMC,050301.359,A,2458.2142,N,12126.5931,E,2.37,107.10,181017,,,A*6F
$GPGGA,050644.000,2458.2349,N,12126.5691,E,1,4,2.51,24.8,M,15.2,M,,*6F
$GPRMC,050644.000,A,2458.2349,N,12126.5691,E,0.74,101.92,181017,,,A*61
$GPGGA,050956.274,2458.2354,N,12126.5649,E,1,4,2.42,32.6,M,15.2,M,,*60
$GPRMC,050956.274,A,2458.2354,N,12126.5649,E,2.58,123.34,181017,,,A*65
$GPGGA,051333.000,2458.2370,N,12126.5516,E,1,5,2.15,9.1,M,15.2,M,,*5A
$GPRMC,051333.000,A,2458.2370,N,12126.5516,E,1.37,350.64,181017,,,A*6A
$GPGGA,051649.206,2458.2339,N,12126.5662,E,1,5,2.09,33.8,M,15.2,M,,*66
$GPRMC,051649.206,A,2458.2339,N,12126.5662,E,1.98,313.28,181017,,,A*61
$GPGGA,051954.186,2458.2423,N,12126.5501,E,1,5,2.04,29.0,M,15.2,M,,*6A
$GPRMC,051954.186,A,2458.2423,N,12126.5501,E,2.17,294.82,181017,,,A*69
$GPGGA,052301.160,2458.2382,N,12126.5599,E,1,5,1.99,32.2,M,15.2,M,,*69
$GPRMC,052301.160,A,2458.2382,N,12126.5599,E,1.11,288.90,181017,,,A*6E
$GPGGA,052619.000,2458.2376,N,12126.5575,E,1,5,1.94,20.3,M,15.2,M,,*64
$GPRMC,052619.000,A,2458.2376,N,12126.5575,E,1.64,319.44,181017,,,A*6E
$GPGGA,052957.000,2458.2301,N,12126.5519,E,1,5,1.90,-22.4,M,15.2,M,,*47
$GPRMC,052957.000,A,2458.2301,N,12126.5519,E,1.69,326.38,181017,,,A*6B
$GPGGA,053414.000,2458.2349,N,12126.5426,E,1,4,2.17,-25.1,M,15.2,M,,*42
$GPRMC,053414.000,A,2458.2349,N,12126.5426,E,3.01,56.84,181017,,,A*5E
$GPGGA,053757.000,2458.2468,N,12126.5641,E,1,5,1.81,46.3,M,15.2,M,,*66
$GPRMC,053757.000,A,2458.2468,N,12126.5641,E,4.23,293.64,181017,,,A*6F
$GPGGA,054131.000,2458.2321,N,12126.5343,E,1,4,2.05,-33.0,M,15.2,M,,*48
$GPRMC,054131.000,A,2458.2321,N,12126.5343,E,4.03,258.01,181017,,,A*65
$GPGGA,054505.942,2458.2457,N,12126.5810,E,1,4,2.01,86.2,M,15.2,M,,*6A
$GPRMC,054505.942,A,2458.2457,N,12126.5810,E,2.09,137.32,181017,,,A*64
$GPGGA,054911.000,2458.2263,N,12126.6083,E,1,5,1.61,109.2,M,15.2,M,,*5E
$GPRMC,054911.000,A,2458.2263,N,12126.6083,E,2.76,27.40,181017,,,A*5F
$GPGGA,055240.850,2458.2194,N,12126.6206,E,1,5,1.22,-58.8,M,15.2,M,,*4C
$GPRMC,055240.850,A,2458.2194,N,12126.6206,E,1.02,270.76,181017,,,A*6D
$GPGGA,055623.000,2458.2378,N,12126.5273,E,1,4,3.50,10.1,M,15.2,M,,*6F
$GPRMC,055623.000,A,2458.2378,N,12126.5273,E,5.89,276.81,181017,,,A*69
$GPGGA,060025.000,2458.2356,N,12126.5550,E,1,3,4.77,41.3,M,15.2,M,,*60
$GPRMC,060025.000,A,2458.2356,N,12126.5550,E,0.51,317.28,181017,,,A*60
$GPGGA,060359.000,2458.2327,N,12126.5862,E,1,5,1.46,64.5,M,15.2,M,,*62
$GPRMC,060359.000,A,2458.2327,N,12126.5862,E,0.32,350.98,181017,,,A*6F
$GPGGA,060721.000,2458.2364,N,12126.6068,E,1,5,1.46,99.3,M,15.2,M,,*6B
$GPRMC,060721.000,A,2458.2364,N,12126.6068,E,0.84,285.90,181017,,,A*6E
$GPGGA,061059.000,2458.2358,N,12126.6076,E,1,5,1.28,93.9,M,15.2,M,,*6A
$GPRMC,061059.000,A,2458.2358,N,12126.6076,E,1.75,258.27,181017,,,A*64
$GPGGA,061433.000,2458.2234,N,12126.6210,E,1,6,1.03,87.5,M,15.2,M,,*68
$GPRMC,061433.000,A,2458.2234,N,12126.6210,E,1.78,213.64,181017,,,A*60
$GPGGA,061824.000,2458.2317,N,12126.6046,E,1,4,1.52,88.7,M,15.2,M,,*68
$GPRMC,061824.000,A,2458.2317,N,12126.6046,E,2.50,286.97,181017,,,A*62
$GPGGA,062201.000,2458.2092,N,12126.6343,E,1,6,1.14,72.3,M,15.2,M,,*6F
$GPRMC,062201.000,A,2458.2092,N,12126.6343,E,2.63,342.90,181017,,,A*6A
$GPGGA,062553.000,2458.2044,N,12126.6611,E,1,6,1.14,88.1,M,15.2,M,,*61
$GPRMC,062553.000,A,2458.2044,N,12126.6611,E,1.18,307.11,181017,,,A*64
$GPGGA,062912.000,2458.2257,N,12126.6318,E,1,5,1.38,86.7,M,15.2,M,,*61
$GPRMC,062912.000,A,2458.2257,N,12126.6318,E,0.27,5.80,181017,,,A*65
$GPGGA,063255.000,2458.2138,N,12126.6646,E,1,5,1.18,85.5,M,15.2,M,,*6F
$GPRMC,063255.000,A,2458.2138,N,12126.6646,E,0.12,98.60,181017,,,A*54
$GPGGA,063611.000,2458.2062,N,12126.6308,E,1,5,1.17,64.3,M,15.2,M,,*6C
$GPRMC,063611.000,A,2458.2062,N,12126.6308,E,1.28,320.11,181017,,,A*6F
$GPGGA,063955.000,2458.2233,N,12126.6236,E,1,5,1.34,49.3,M,15.2,M,,*67
$GPRMC,063955.000,A,2458.2233,N,12126.6236,E,0.14,331.56,181017,,,A*67
$GPGGA,064352.000,2458.2232,N,12126.6912,E,1,4,2.33,115.5,M,15.2,M,,*5A
$GPRMC,064352.000,A,2458.2232,N,12126.6912,E,5.51,271.21,181017,,,A*60
$GPGGA,064812.000,2458.2273,N,12126.6279,E,1,4,1.53,56.6,M,15.2,M,,*66
$GPRMC,064812.000,A,2458.2273,N,12126.6279,E,2.10,323.23,181017,,,A*6A
$GPGGA,065244.000,2458.2292,N,12126.6418,E,1,5,1.31,19.5,M,15.2,M,,*6D
$GPRMC,065244.000,A,2458.2292,N,12126.6418,E,0.42,37.24,181017,,,A*58
$GPGGA,065701.000,2458.2275,N,12126.5682,E,1,4,1.59,168.2,M,15.2,M,,*5D
$GPRMC,065701.000,A,2458.2275,N,12126.5682,E,0.26,301.42,181017,,,A*63
$GPGGA,070101.188,2458.2326,N,12126.5845,E,1,5,1.45,-2.4,M,15.2,M,,*76
$GPRMC,070101.188,A,2458.2326,N,12126.5845,E,0.61,101.37,181017,,,A*61
$GPGGA,070415.148,2458.2388,N,12126.6259,E,1,5,1.32,-200.4,M,15.2,M,,*7A
$GPRMC,070415.148,A,2458.2388,N,12126.6259,E,0.98,75.92,181017,,,A*56
$GPGGA,070738.116,2458.2379,N,12126.5625,E,1,4,3.27,50.7,M,15.2,M,,*61
$GPRMC,070738.116,A,2458.2379,N,12126.5625,E,2.10,109.37,181017,,,A*64
$GPGGA,071110.082,2458.2317,N,12126.5791,E,1,4,3.22,75.7,M,15.2,M,,*64
$GPRMC,071110.082,A,2458.2317,N,12126.5791,E,1.93,89.00,181017,,,A*56
$GPGGA,071434.000,2458.2313,N,12126.5745,E,1,4,3.16,68.1,M,15.2,M,,*6D
$GPRMC,071434.000,A,2458.2313,N,12126.5745,E,2.21,102.84,181017,,,A*66
$GPGGA,072314.963,2458.2210,N,12126.5962,E,1,4,2.96,61.2,M,15.2,M,,*6D
$GPRMC,072314.963,A,2458.2210,N,12126.5962,E,0.62,252.96,181017,,,A*65
$GPGGA,072752.000,2458.2118,N,12126.6130,E,1,5,2.11,46.2,M,15.2,M,,*6B
$GPRMC,072752.000,A,2458.2118,N,12126.6130,E,0.59,256.75,181017,,,A*69
$GPGGA,073201.880,2458.2143,N,12126.6065,E,1,6,1.43,-42.3,M,15.2,M,,*49
$GPRMC,073201.880,A,2458.2143,N,12126.6065,E,1.78,292.44,181017,,,A*6C
$GPGGA,073604.000,2458.1428,N,12126.7239,E,1,5,5.51,519.7,M,15.2,M,,*5F
$GPRMC,073604.000,A,2458.1428,N,12126.7239,E,6.79,312.08,181017,,,A*6B
$GPGGA,075033.000,2458.1320,N,12126.7350,E,1,4,2.11,361.2,M,15.2,M,,*54
$GPRMC,075033.000,A,2458.1320,N,12126.7350,E,1.44,304.20,181017,,,A*6A
$GPGGA,075943.000,2458.2475,N,12126.5683,E,1,4,1.99,23.3,M,15.2,M,,*60
$GPRMC,075943.000,A,2458.2475,N,12126.5683,E,2.05,308.53,181017,,,A*67
$GPGGA,080432.000,2458.2136,N,12126.6088,E,1,4,2.09,102.8,M,15.2,M,,*5E
$GPRMC,080432.000,A,2458.2136,N,12126.6088,E,0.55,201.39,181017,,,A*69
$GPGGA,080917.000,2458.2114,N,12126.6003,E,1,5,1.33,93.1,M,15.2,M,,*6C
$GPRMC,080917.000,A,2458.2114,N,12126.6003,E,1.69,316.77,181017,,,A*63
$GPGGA,082844.316,2458.2179,N,12126.5808,E,1,5,1.45,45.4,M,15.2,M,,*69
$GPRMC,082844.316,A,2458.2179,N,12126.5808,E,1.63,356.63,181017,,,A*62
$GPGGA,083744.000,2458.2294,N,12126.5711,E,1,5,1.48,60.3,M,15.2,M,,*69
$GPRMC,083744.000,A,2458.2294,N,12126.5711,E,0.28,279.10,181017,,,A*69
$GPGGA,084112.000,2458.2281,N,12126.5909,E,1,5,1.48,96.7,M,15.2,M,,*65
$GPRMC,084112.000,A,2458.2281,N,12126.5909,E,1.72,323.02,181017,,,A*6B
$GPGGA,084440.000,2458.2471,N,12126.5746,E,1,5,1.48,63.9,M,15.2,M,,*6F
$GPRMC,084440.000,A,2458.2471,N,12126.5746,E,1.65,322.13,181017,,,A*62
$GPGGA,084803.000,2458.2410,N,12126.5724,E,1,5,1.49,67.9,M,15.2,M,,*62
$GPRMC,084803.000,A,2458.2410,N,12126.5724,E,0.63,325.72,181017,,,A*6D
$GPGGA,085124.000,2458.2440,N,12126.5793,E,1,5,1.49,69.4,M,15.2,M,,*65
$GPRMC,085124.000,A,2458.2440,N,12126.5793,E,0.66,67.11,181017,,,A*5C
$GPGGA,085444.030,2458.2141,N,12126.6072,E,1,3,2.35,96.0,M,15.2,M,,*60
$GPRMC,085444.030,A,2458.2141,N,12126.6072,E,0.82,3.11,181017,,,A*6B
$GPGGA,085811.000,2458.2393,N,12126.5985,E,1,5,1.49,60.2,M,15.2,M,,*65
$GPRMC,085811.000,A,2458.2393,N,12126.5985,E,0.68,327.55,181017,,,A*6A
$GPGGA,090142.000,2458.2391,N,12126.5958,E,1,4,2.13,66.2,M,15.2,M,,*67
$GPRMC,090142.000,A,2458.2391,N,12126.5958,E,0.98,322.84,181017,,,A*65
$GPGGA,090517.000,2458.2333,N,12126.6108,E,1,4,2.15,89.8,M,15.2,M,,*68
$GPRMC,090517.000,A,2458.2333,N,12126.6108,E,0.78,355.33,181017,,,A*65
$GPGGA,090834.000,2458.2143,N,12126.6421,E,1,5,1.33,136.0,M,15.2,M,,*54
$GPRMC,090834.000,A,2458.2143,N,12126.6421,E,0.93,339.97,181017,,,A*63
$GPGGA,091223.859,2458.2395,N,12126.6142,E,1,4,2.19,63.4,M,15.2,M,,*6B
$GPRMC,091223.859,A,2458.2395,N,12126.6142,E,0.55,44.50,181017,,,A*5B
$GPGGA,091629.000,2458.2309,N,12126.5701,E,1,4,2.22,45.4,M,15.2,M,,*6A
$GPRMC,091629.000,A,2458.2309,N,12126.5701,E,1.11,118.70,181017,,,A*6D
$GPGGA,092000.000,2458.2338,N,12126.5711,E,1,4,2.25,19.7,M,15.2,M,,*6A
$GPRMC,092000.000,A,2458.2338,N,12126.5711,E,3.23,79.67,181017,,,A*53
$GPGGA,092335.000,2458.2172,N,12126.5957,E,1,5,2.28,77.3,M,15.2,M,,*6F
$GPRMC,092335.000,A,2458.2172,N,12126.5957,E,4.36,286.05,181017,,,A*63
$GPGGA,092714.000,2458.2268,N,12126.5629,E,1,5,3.38,28.8,M,15.2,M,,*67
$GPRMC,092714.000,A,2458.2268,N,12126.5629,E,2.94,94.82,181017,,,A*5A
$GPGGA,093042.672,2458.2163,N,12126.6102,E,1,5,3.54,88.5,M,15.2,M,,*69
$GPRMC,093042.672,A,2458.2163,N,12126.6102,E,1.96,282.96,181017,,,A*68
$GPGGA,093412.000,2458.2319,N,12126.5632,E,1,6,2.32,60.1,M,15.2,M,,*63
$GPRMC,093412.000,A,2458.2319,N,12126.5632,E,0.67,322.55,181017,,,A*69
$GPGGA,093737.603,2458.2251,N,12126.5786,E,1,5,3.88,65.4,M,15.2,M,,*62
$GPRMC,093737.603,A,2458.2251,N,12126.5786,E,2.12,76.72,181017,,,A*5C
$GPGGA,094049.569,2458.2358,N,12126.5682,E,1,4,5.05,30.8,M,15.2,M,,*67
$GPRMC,094049.569,A,2458.2358,N,12126.5682,E,1.65,87.91,181017,,,A*57
$GPGGA,094415.000,2458.2106,N,12126.6666,E,1,6,2.40,128.1,M,15.2,M,,*55
$GPRMC,094415.000,A,2458.2106,N,12126.6666,E,3.00,277.78,181017,,,A*6B
$GPGGA,094728.502,2458.2113,N,12126.7327,E,1,6,2.42,153.9,M,15.2,M,,*5C
$GPRMC,094728.502,A,2458.2113,N,12126.7327,E,2.68,268.81,181017,,,A*63
$GPGGA,095049.000,2458.2062,N,12126.6712,E,1,5,2.53,122.0,M,15.2,M,,*52
$GPRMC,095049.000,A,2458.2062,N,12126.6712,E,6.36,279.21,181017,,,A*64
$GPGGA,095518.000,2458.2218,N,12126.6402,E,1,5,2.53,78.8,M,15.2,M,,*68
$GPRMC,095518.000,A,2458.2218,N,12126.6402,E,3.71,96.00,181017,,,A*5E
$GPGGA,095858.000,2458.2223,N,12126.6725,E,1,5,2.53,112.0,M,15.2,M,,*5A
$GPRMC,095858.000,A,2458.2223,N,12126.6725,E,5.17,267.26,181017,,,A*67
$GPGGA,100207.355,2458.2235,N,12126.6238,E,1,5,3.64,73.0,M,15.2,M,,*69
$GPRMC,100207.355,A,2458.2235,N,12126.6238,E,0.78,114.69,181017,,,A*67
$GPGGA,100520.340,2458.2038,N,12126.6797,E,1,5,2.32,21.4,M,15.2,M,,*61
$GPRMC,100520.340,A,2458.2038,N,12126.6797,E,0.73,326.95,181017,,,A*65
$GPGGA,100832.308,2458.2192,N,12126.6283,E,1,4,4.34,68.0,M,15.2,M,,*6A
$GPRMC,100832.308,A,2458.2192,N,12126.6283,E,2.57,122.63,181017,,,A*6D
$GPGGA,101644.225,2458.2192,N,12126.6042,E,1,5,1.71,-151.4,M,15.2,M,,*72
$GPRMC,101644.225,A,2458.2192,N,12126.6042,E,0.94,96.50,181017,,,A*51
$GPGGA,101950.217,2458.6157,N,12126.9030,E,1,6,1.35,-19.9,M,15.2,M,,*4D
$GPRMC,101950.217,A,2458.6157,N,12126.9030,E,18.06,50.06,181017,,,A*66
$GPGGA,102300.178,2458.9326,N,12127.2968,E,1,5,1.34,48.0,M,15.2,M,,*6C
$GPRMC,102300.178,A,2458.9326,N,12127.2968,E,0.40,93.49,181017,,,A*5A
$GPGGA,102606.169,2459.0699,N,12127.5158,E,1,6,1.19,-15.1,M,15.2,M,,*42
$GPRMC,102606.169,A,2459.0699,N,12127.5158,E,7.89,12.85,181017,,,A*57
$GPGGA,102915.125,2459.5722,N,12127.4379,E,1,6,1.22,6.9,M,15.2,M,,*5C
$GPRMC,102915.125,A,2459.5722,N,12127.4379,E,7.37,322.37,181017,,,A*6A
$GPGGA,103819.000,2459.6009,N,12127.4439,E,1,5,1.14,-142.6,M,15.2,M,,*7D
$GPRMC,103819.000,A,2459.6009,N,12127.4439,E,0.53,204.15,181017,,,A*6E
$GPGGA,104155.000,2459.5934,N,12127.4262,E,1,6,1.04,53.6,M,15.2,M,,*69
$GPRMC,104155.000,A,2459.5934,N,12127.4262,E,0.56,47.56,181017,,,A*53
$GPGGA,105032.892,2459.5858,N,12127.4305,E,1,6,1.13,100.7,M,15.2,M,,*50
$GPRMC,105032.892,A,2459.5858,N,12127.4305,E,0.67,342.92,181017,,,A*66
