$GPGGA,120105.000,2500.4635,N,12129.0403,E,1,4,2.45,-7.8,M,15.2,M,,*75
$GPRMC,120106.000,A,2500.4631,N,12129.0460,E,0.55,238.16,191017,,,A*67
$GPGGA,120456.000,2500.4694,N,12129.0370,E,1,4,2.39,-5.2,M,15.2,M,,*7D
$GPRMC,120457.000,A,2500.4696,N,12129.0348,E,2.20,290.23,191017,,,A*62
$GPGGA,120837.000,2500.4193,N,12129.1236,E,1,3,3.62,134.7,M,15.2,M,,*57
$GPRMC,120838.000,A,2500.4190,N,12129.1240,E,0.18,153.03,191017,,,A*69
$GPGGA,121201.000,2500.4588,N,12129.0715,E,1,3,3.35,44.2,M,15.2,M,,*63
$GPRMC,121202.000,A,2500.4621,N,12129.0667,E,1.14,329.80,191017,,,A*6F
$GPGGA,121555.000,2500.4657,N,12129.0390,E,1,4,2.30,9.5,M,15.2,M,,*50
$GPRMC,121556.000,A,2500.4652,N,12129.0415,E,0.67,281.28,191017,,,A*6E
$GPGGA,121931.000,2500.4659,N,12129.0512,E,1,4,2.29,14.9,M,15.2,M,,*64
$GPRMC,121932.000,A,2500.4649,N,12129.0588,E,1.48,281.26,191017,,,A*6D
$GPGGA,123834.000,2500.4482,N,12129.0869,E,1,3,2.57,134.8,M,15.2,M,,*5B
$GPRMC,123835.000,A,2500.4484,N,12129.0873,E,0.49,322.93,191017,,,A*65
$GPGGA,124200.000,2500.4587,N,12129.0740,E,1,3,2.53,92.1,M,15.2,M,,*61
$GPRMC,124201.000,A,2500.4591,N,12129.0734,E,2.20,93.71,191017,,,A*5E
$GPGGA,124511.581,2500.4872,N,12129.0957,E,1,4,2.25,93.0,M,15.2,M,,*63
$GPRMC,124512.581,A,2500.4826,N,12129.0906,E,3.86,304.20,191017,,,A*6D
$GPGGA,124826.000,2500.4629,N,12129.0813,E,1,4,2.24,54.9,M,15.2,M,,*64
$GPRMC,124827.000,A,2500.4600,N,12129.0843,E,0.35,120.55,191017,,,A*6D
$GPGGA,125156.000,2500.4650,N,12129.0666,E,1,4,2.22,78.1,M,15.2,M,,*69
$GPRMC,125157.000,A,2500.4632,N,12129.0665,E,0.32,56.85,191017,,,A*53
$GPGGA,125503.488,2500.4575,N,12129.0694,E,1,4,2.21,50.1,M,15.2,M,,*69
$GPRMC,125505.000,A,2500.4597,N,12129.0682,E,3.62,274.26,191017,,,A*68
$GPGGA,125826.459,2500.4614,N,12129.1142,E,1,4,2.20,112.8,M,15.2,M,,*59
$GPRMC,125827.459,A,2500.4620,N,12129.1131,E,3.42,289.70,191017,,,A*6F
$GPGGA,130142.000,2500.4755,N,12129.0416,E,1,4,2.19,-45.2,M,15.2,M,,*41
$GPRMC,130143.000,A,2500.4757,N,12129.0401,E,3.65,255.06,191017,,,A*6B
$GPGGA,130454.528,2500.4912,N,12128.9406,E,1,4,2.19,-46.9,M,15.2,M,,*40
$GPRMC,130455.397,A,2500.4660,N,12129.0486,E,4.88,273.05,191017,,,A*6D
$GPGGA,130813.383,2500.4763,N,12129.0825,E,1,4,2.19,-2.3,M,15.2,M,,*7F
$GPRMC,130814.383,A,2500.4842,N,12129.0639,E,0.94,309.12,191017,,,A*6A
$GPGGA,131126.352,2500.5045,N,12129.0389,E,1,4,2.19,-1.8,M,15.2,M,,*7A
$GPRMC,131127.352,A,2500.4958,N,12129.0631,E,1.88,322.37,191017,,,A*6E
$GPGGA,131437.322,2500.4661,N,12129.0609,E,1,4,2.20,21.1,M,15.2,M,,*68
$GPRMC,131439.000,A,2500.4674,N,12129.0607,E,0.23,239.77,191017,,,A*6B
$GPGGA,131750.292,2500.4636,N,12129.0622,E,1,4,2.21,73.2,M,15.2,M,,*6E
$GPRMC,131752.000,A,2500.4616,N,12129.0720,E,1.75,96.55,191017,,,A*50
$GPGGA,132108.261,2500.4712,N,12129.0403,E,1,4,2.23,-11.8,M,15.2,M,,*4D
$GPRMC,132109.261,A,2500.4666,N,12129.0599,E,1.37,279.63,191017,,,A*69
$GPGGA,132420.231,2500.3689,N,12129.0809,E,1,4,2.25,654.6,M,15.2,M,,*57
$GPRMC,132421.231,A,2500.3629,N,12129.1213,E,2.73,311.51,191017,,,A*66
$GPGGA,132800.201,2500.4602,N,12129.0785,E,1,4,2.15,127.9,M,15.2,M,,*5A
$GPRMC,132802.000,A,2500.4601,N,12129.0772,E,2.76,293.23,191017,,,A*6E
$GPGGA,133110.150,2500.4488,N,12129.0964,E,1,4,2.16,199.5,M,15.2,M,,*5F
$GPRMC,133111.150,A,2500.4486,N,12129.0977,E,4.56,304.98,191017,,,A*6D
$GPGGA,133435.121,2500.3822,N,12129.1691,E,1,4,2.19,318.5,M,15.2,M,,*50
$GPRMC,133436.121,A,2500.3818,N,12129.1703,E,3.11,294.75,191017,,,A*64
$GPGGA,133813.105,2500.4634,N,12129.0929,E,1,4,2.20,126.5,M,15.2,M,,*58
$GPRMC,133814.105,A,2500.4638,N,12129.0926,E,1.40,258.92,191017,,,A*62
$GPGGA,134154.071,2500.4639,N,12129.0800,E,1,4,2.23,170.6,M,15.2,M,,*53
$GPRMC,134155.071,A,2500.4638,N,12129.0801,E,1.64,293.23,191017,,,A*64
$GPGGA,134535.037,2500.4713,N,12129.0612,E,1,4,2.26,134.4,M,15.2,M,,*51
$GPRMC,134536.037,A,2500.4704,N,12129.0627,E,1.51,269.07,191017,,,A*66
$GPGGA,134914.002,2500.4592,N,12129.0701,E,1,4,2.29,166.7,M,15.2,M,,*5B
$GPRMC,134915.002,A,2500.4585,N,12129.0712,E,2.17,244.76,191017,,,A*69
$GPGGA,135310.968,2500.4560,N,12129.0530,E,1,3,3.25,-9.4,M,15.2,M,,*70
$GPRMC,135312.000,A,2500.4559,N,12129.0531,E,0.10,220.00,191017,,,A*63
$GPGGA,135632.000,2500.4322,N,12129.1227,E,1,5,2.21,126.8,M,15.2,M,,*5C
$GPRMC,135633.000,A,2500.4316,N,12129.1220,E,2.81,134.07,191017,,,A*65
$GPGGA,140002.884,2500.4607,N,12129.1235,E,1,4,2.51,153.0,M,15.2,M,,*52
$GPRMC,140003.884,A,2500.4609,N,12129.1231,E,2.08,298.80,191017,,,A*66
$GPGGA,140312.840,2500.4412,N,12129.1213,E,1,4,2.51,134.7,M,15.2,M,,*5C
$GPRMC,140313.867,A,2500.4595,N,12129.0921,E,0.15,209.23,191017,,,A*6B
$GPGGA,140657.837,2500.4802,N,12129.0576,E,1,4,2.62,16.7,M,15.2,M,,*61
$GPRMC,140658.837,A,2500.4817,N,12129.0541,E,2.58,306.08,191017,,,A*65
$GPGGA,141047.802,2500.4925,N,12129.0811,E,1,5,1.18,103.3,M,15.2,M,,*57
$GPRMC,141048.802,A,2500.4957,N,12129.0817,E,1.02,356.84,191017,,,A*63
$GPGGA,141402.766,2500.4817,N,12129.0782,E,1,5,1.18,89.4,M,15.2,M,,*6E
$GPRMC,141403.766,A,2500.4828,N,12129.0792,E,0.29,211.61,191017,,,A*6F
$GPGGA,141713.736,2500.4797,N,12129.0913,E,1,4,1.38,82.4,M,15.2,M,,*61
$GPRMC,141715.000,A,2500.4828,N,12129.0875,E,0.46,220.86,191017,,,A*68
$GPGGA,142036.706,2500.4516,N,12129.0791,E,1,4,1.94,42.6,M,15.2,M,,*66
$GPRMC,142038.000,A,2500.4474,N,12129.0792,E,2.70,189.33,191017,,,A*69
$GPGGA,142409.658,2500.4691,N,12129.0834,E,1,5,1.17,92.1,M,15.2,M,,*68
$GPRMC,142410.658,A,2500.4691,N,12129.0848,E,0.33,214.27,191017,,,A*6A
$GPGGA,142824.641,2500.4900,N,12129.0798,E,1,3,12.33,106.9,M,15.2,M,,*6B
$GPRMC,142825.641,A,2500.4900,N,12129.0799,E,0.06,356.77,191017,,,A*68
$GPGGA,143158.601,2500.4868,N,12129.0741,E,1,5,1.16,117.6,M,15.2,M,,*5B
$GPRMC,143159.601,A,2500.4877,N,12129.0739,E,0.90,359.86,191017,,,A*6A
$GPGGA,143523.568,2500.4855,N,12129.0851,E,1,5,1.16,121.6,M,15.2,M,,*5A
$GPRMC,143524.568,A,2500.4849,N,12129.0845,E,0.65,218.80,191017,,,A*69
$GPGGA,143954.536,2500.4490,N,12129.0793,E,1,5,1.72,28.2,M,15.2,M,,*67
$GPRMC,143956.000,A,2500.4496,N,12129.0765,E,0.23,315.07,191017,,,A*69
$GPGGA,144307.477,2500.4607,N,12129.0823,E,1,4,2.14,52.5,M,15.2,M,,*68
$GPRMC,144308.477,A,2500.4596,N,12129.0792,E,1.21,33.56,191017,,,A*52
$GPGGA,144624.000,2500.4450,N,12129.0137,E,1,4,3.96,-27.5,M,15.2,M,,*40
$GPRMC,144625.000,A,2500.4447,N,12129.0195,E,3.94,81.92,191017,,,A*5D
$GPGGA,144954.000,2500.4688,N,12129.1256,E,1,5,4.10,140.9,M,15.2,M,,*53
$GPRMC,144955.000,A,2500.4689,N,12129.1275,E,0.68,60.67,191017,,,A*5C
$GPGGA,145310.000,2500.4736,N,12129.0898,E,1,5,4.38,137.9,M,15.2,M,,*5F
$GPRMC,145311.000,A,2500.4753,N,12129.0848,E,0.55,117.99,191017,,,A*6A
$GPGGA,145648.353,2500.4681,N,12129.0802,E,1,4,1.70,84.9,M,15.2,M,,*6D
$GPRMC,145649.353,A,2500.4677,N,12129.0813,E,1.66,170.53,191017,,,A*68
$GPGGA,145959.237,2500.4740,N,12129.0548,E,1,5,1.22,121.5,M,15.2,M,,*5A
$GPRMC,150000.241,A,2500.4741,N,12129.0559,E,0.53,65.02,191017,,,A*54
$GPGGA,150326.306,2500.4658,N,12129.0727,E,1,4,1.59,70.6,M,15.2,M,,*67
$GPRMC,150327.306,A,2500.4652,N,12129.0729,E,1.45,359.97,191017,,,A*60
$GPGGA,150801.273,2500.4731,N,12129.0837,E,1,4,1.53,81.7,M,15.2,M,,*6F
$GPRMC,150803.000,A,2500.4730,N,12129.0845,E,1.18,9.26,191017,,,A*6C
$GPGGA,151126.214,2500.4560,N,12129.0823,E,1,4,1.48,63.2,M,15.2,M,,*63
$GPRMC,151127.214,A,2500.4544,N,12129.0824,E,1.39,171.63,191017,,,A*6F
$GPGGA,151451.199,2500.4773,N,12129.0814,E,1,4,1.45,93.2,M,15.2,M,,*66
$GPRMC,151452.199,A,2500.4836,N,12129.0820,E,0.26,314.46,191017,,,A*6B
$GPGGA,151808.166,2500.4683,N,12129.0796,E,1,4,1.41,83.1,M,15.2,M,,*6B
$GPRMC,151809.166,A,2500.4685,N,12129.0802,E,1.64,171.22,191017,,,A*6B
$GPGGA,152121.136,2500.4762,N,12129.0855,E,1,4,1.39,103.5,M,15.2,M,,*53
$GPRMC,152123.000,A,2500.4739,N,12129.0852,E,0.66,265.22,191017,,,A*6E
$GPGGA,152439.090,2500.4788,N,12129.0796,E,1,4,1.36,101.3,M,15.2,M,,*5D
$GPRMC,152441.000,A,2500.4796,N,12129.0793,E,0.42,279.87,191017,,,A*6C
$GPGGA,152757.059,2500.4965,N,12129.0727,E,1,4,1.33,168.1,M,15.2,M,,*5C
$GPRMC,152759.000,A,2500.4992,N,12129.0712,E,0.76,177.03,191017,,,A*63
$GPGGA,153704.000,2500.4710,N,12129.1286,E,1,5,2.07,142.9,M,15.2,M,,*51
$GPRMC,153705.000,A,2500.4704,N,12129.1296,E,0.98,305.22,191017,,,A*66
$GPGGA,154043.000,2500.4623,N,12129.0379,E,1,4,2.50,-19.8,M,15.2,M,,*43
$GPRMC,154044.000,A,2500.4629,N,12129.0426,E,1.63,66.13,191017,,,A*50
$GPGGA,154358.000,2500.4720,N,12129.0384,E,1,4,2.47,-2.3,M,15.2,M,,*7D
$GPRMC,154359.000,A,2500.4695,N,12129.0380,E,0.78,17.08,191017,,,A*54
$GPGGA,154718.000,2500.4710,N,12129.0806,E,1,4,2.44,85.3,M,15.2,M,,*6E
$GPRMC,154719.000,A,2500.4692,N,12129.0767,E,3.41,268.77,191017,,,A*65
$GPGGA,155036.000,2500.4708,N,12129.0499,E,1,4,2.42,11.9,M,15.2,M,,*66
$GPRMC,155037.000,A,2500.4718,N,12129.0565,E,1.34,322.67,191017,,,A*62
$GPGGA,155413.000,2500.4840,N,12129.0864,E,1,5,2.04,128.7,M,15.2,M,,*5E
$GPRMC,155414.000,A,2500.4843,N,12129.0869,E,0.16,90.43,191017,,,A*5A
$GPGGA,155754.000,2500.4423,N,12129.1363,E,1,5,2.32,162.4,M,15.2,M,,*52
$GPRMC,155755.000,A,2500.4441,N,12129.1356,E,1.04,263.56,191017,,,A*6C
$GPGGA,160105.909,2500.4142,N,12129.0736,E,1,4,2.43,165.4,M,15.2,M,,*51
$GPRMC,160106.945,A,2500.4153,N,12129.0552,E,0.96,284.05,191017,,,A*62
$GPGGA,160419.734,2500.4483,N,12129.0667,E,1,4,2.79,81.8,M,15.2,M,,*6A
$GPRMC,160420.734,A,2500.4418,N,12129.1344,E,0.62,132.82,191017,,,A*6B
$GPGGA,160735.000,2500.3957,N,12129.2464,E,1,5,2.31,339.8,M,15.2,M,,*5A
$GPRMC,160737.000,A,2500.4384,N,12129.1386,E,3.50,106.15,191017,,,A*69
$GPGGA,161049.657,2500.3726,N,12128.5032,E,1,5,2.32,-191.7,M,15.2,M,,*7B
$GPRMC,161050.657,A,2500.3452,N,12129.3728,E,0.72,264.40,191017,,,A*67
$GPGGA,161404.000,2500.4084,N,12129.2011,E,1,5,2.33,239.7,M,15.2,M,,*50
$GPRMC,161405.000,A,2500.4206,N,12129.1699,E,2.44,297.87,191017,,,A*6E
$GPGGA,161731.000,2500.4542,N,12129.0740,E,1,5,2.39,68.1,M,15.2,M,,*61
$GPRMC,161732.000,A,2500.4546,N,12129.0717,E,0.88,147.48,191017,,,A*63
$GPGGA,162043.564,2500.4550,N,12129.0668,E,1,5,2.43,69.7,M,15.2,M,,*65
$GPRMC,162045.000,A,2500.4546,N,12129.0678,E,0.87,66.62,191017,,,A*5A
$GPGGA,162357.550,2500.4326,N,12129.0811,E,1,3,3.69,69.6,M,15.2,M,,*6D
$GPRMC,162359.000,A,2500.4518,N,12129.0530,E,0.56,49.33,191017,,,A*55
$GPGGA,162721.000,2500.4523,N,12129.0868,E,1,5,2.49,89.7,M,15.2,M,,*6F
$GPRMC,162722.000,A,2500.4534,N,12129.0875,E,0.41,314.79,191017,,,A*6C
$GPGGA,163039.000,2500.4602,N,12129.0758,E,1,5,2.51,71.9,M,15.2,M,,*6C
$GPRMC,163040.000,A,2500.4625,N,12129.0720,E,5.00,125.45,191017,,,A*6D
$GPGGA,163359.000,2500.4936,N,12129.0279,E,1,5,2.52,-16.6,M,15.2,M,,*47
$GPRMC,163400.000,A,2500.4932,N,12129.0250,E,1.01,303.81,191017,,,A*6D
$GPGGA,163720.000,2500.4785,N,12129.0489,E,1,5,2.52,38.6,M,15.2,M,,*63
$GPRMC,163721.000,A,2500.4831,N,12129.0408,E,7.48,124.63,191017,,,A*64
$GPGGA,164040.000,2500.4622,N,12129.0719,E,1,5,2.50,47.3,M,15.2,M,,*6C
$GPRMC,164041.000,A,2500.4618,N,12129.0729,E,0.46,57.24,191017,,,A*58
$GPGGA,164400.000,2500.4634,N,12129.0604,E,1,5,2.48,46.7,M,15.2,M,,*6A
$GPRMC,164401.000,A,2500.4630,N,12129.0621,E,2.65,308.11,191017,,,A*67
$GPGGA,164722.000,2500.4359,N,12129.1149,E,1,5,2.44,114.5,M,15.2,M,,*50
$GPRMC,164723.000,A,2500.4372,N,12129.1139,E,1.24,287.46,191017,,,A*6A
$GPGGA,165038.285,2500.4877,N,12129.0125,E,1,5,2.40,-38.6,M,15.2,M,,*4B
$GPRMC,165040.000,A,2500.4772,N,12129.0294,E,1.41,113.70,191017,,,A*60
$GPGGA,165356.270,2500.4342,N,12129.0925,E,1,4,2.66,47.2,M,15.2,M,,*6B
$GPRMC,165357.270,A,2500.4614,N,12129.0618,E,1.03,133.30,191017,,,A*61
$GPGGA,165714.240,2500.4263,N,12129.1176,E,1,4,2.57,67.9,M,15.2,M,,*6C
$GPRMC,165715.240,A,2500.4423,N,12129.0937,E,0.53,131.92,191017,,,A*6A
$GPGGA,170026.209,2500.4564,N,12129.0760,E,1,4,2.49,71.7,M,15.2,M,,*65
$GPRMC,170027.209,A,2500.4725,N,12129.0591,E,1.95,296.91,191017,,,A*66
$GPGGA,170338.179,2500.4454,N,12129.0792,E,1,4,2.41,19.2,M,15.2,M,,*61
$GPRMC,170339.179,A,2500.4673,N,12129.0611,E,2.67,300.40,191017,,,A*6B
$GPGGA,170650.149,2500.4504,N,12129.0677,E,1,4,2.34,18.3,M,15.2,M,,*65
$GPRMC,170651.149,A,2500.4746,N,12129.0427,E,2.12,312.88,191017,,,A*66
$GPGGA,171002.119,2500.4435,N,12129.0855,E,1,4,2.27,8.7,M,15.2,M,,*5A
$GPRMC,171003.119,A,2500.4612,N,12129.0701,E,0.91,166.10,191017,,,A*6D
$GPGGA,171320.089,2500.4434,N,12129.0828,E,1,4,2.21,15.8,M,15.2,M,,*6F
$GPRMC,171322.000,A,2500.4589,N,12129.0703,E,4.23,190.09,191017,,,A*6B
$GPGGA,171701.058,2500.4929,N,12129.0701,E,1,4,2.14,62.6,M,15.2,M,,*69
$GPRMC,171702.058,A,2500.4907,N,12129.0666,E,0.37,280.69,191017,,,A*6D
$GPGGA,172127.024,2500.4894,N,12129.0808,E,1,4,2.08,77.3,M,15.2,M,,*6E
$GPRMC,172128.024,A,2500.4890,N,12129.0827,E,3.48,323.25,191017,,,A*64
$GPGGA,172545.982,2500.4698,N,12129.0956,E,1,4,2.04,130.3,M,15.2,M,,*5D
$GPRMC,172546.982,A,2500.4698,N,12129.0953,E,1.39,243.70,191017,,,A*6A
$GPGGA,173457.895,2500.4706,N,12129.1182,E,1,4,1.97,77.1,M,15.2,M,,*66
$GPRMC,173459.000,A,2500.4709,N,12129.1177,E,1.24,287.77,191017,,,A*62
$GPGGA,173845.840,2500.4629,N,12129.1402,E,1,4,1.95,39.4,M,15.2,M,,*6D
$GPRMC,173846.840,A,2500.4639,N,12129.1401,E,1.58,209.74,191017,,,A*64
$GPGGA,175247.727,2500.4606,N,12129.0852,E,1,4,1.62,-14.9,M,15.2,M,,*4F
$GPRMC,175249.000,A,2500.4607,N,12129.0854,E,2.64,30.01,191017,,,A*5D
$GPGGA,175609.674,2500.4685,N,12129.0893,E,1,4,1.58,29.6,M,15.2,M,,*65
$GPRMC,175610.674,A,2500.4650,N,12129.0872,E,2.40,26.23,191017,,,A*57
$GPGGA,175946.000,2500.4540,N,12129.0713,E,1,4,1.54,-72.2,M,15.2,M,,*42
$GPRMC,175947.000,A,2500.4544,N,12129.0718,E,0.70,0.19,191017,,,A*66
$GPGGA,180426.608,2500.4610,N,12129.0920,E,1,4,1.49,48.7,M,15.2,M,,*68
$GPRMC,180427.608,A,2500.4604,N,12129.0910,E,1.47,317.99,191017,,,A*60
$GPGGA,180857.581,2500.4613,N,12129.0824,E,1,4,1.44,62.9,M,15.2,M,,*6D
$GPRMC,180858.581,A,2500.4617,N,12129.0823,E,0.51,4.70,191017,,,A*65
$GPGGA,190353.000,2500.3798,N,12129.2672,E,1,4,3.25,397.9,M,15.2,M,,*59
$GPRMC,190354.000,A,2500.3802,N,12129.2645,E,0.13,222.29,191017,,,A*62
$GPGGA,192812.000,2500.4377,N,12129.1090,E,1,4,1.86,200.2,M,15.2,M,,*51
$GPRMC,192813.000,A,2500.4402,N,12129.1036,E,0.14,65.75,191017,,,A*5D
$GPGGA,193754.000,2500.4657,N,12129.0631,E,1,4,1.81,-22.3,M,15.2,M,,*4F
$GPRMC,193755.000,A,2500.4655,N,12129.0648,E,0.79,267.12,191017,,,A*65
$GPGGA,194227.000,2500.4619,N,12129.0669,E,1,4,1.79,-28.2,M,15.2,M,,*42
$GPRMC,194228.000,A,2500.4622,N,12129.0657,E,0.28,121.09,191017,,,A*6C
$GPGGA,194602.000,2500.4388,N,12129.0525,E,1,4,3.08,359.4,M,15.2,M,,*5D
$GPRMC,194603.000,A,2500.4384,N,12129.0525,E,0.34,324.83,191017,,,A*66
$GPGGA,195034.633,2500.4554,N,12129.0740,E,1,5,1.69,11.5,M,15.2,M,,*65
$GPRMC,195036.000,A,2500.4576,N,12129.0707,E,0.65,295.73,191017,,,A*6E
$GPGGA,195904.000,2500.4368,N,12129.0537,E,1,4,3.20,460.4,M,15.2,M,,*5F
$GPRMC,195905.000,A,2500.4366,N,12129.0529,E,0.12,76.66,191017,,,A*55
$GPGGA,200249.000,2500.4571,N,12129.0788,E,1,4,2.16,79.7,M,15.2,M,,*61
$GPRMC,200250.000,A,2500.4569,N,12129.0788,E,0.33,101.07,191017,,,A*64
$GPGGA,200611.460,2500.4651,N,12129.0688,E,1,5,2.10,70.9,M,15.2,M,,*6A
$GPRMC,200612.460,A,2500.4641,N,12129.0694,E,1.70,328.83,191017,,,A*62
$GPGGA,201004.000,2500.4758,N,12129.0604,E,1,5,2.08,129.5,M,15.2,M,,*5F
$GPRMC,201005.000,A,2500.4751,N,12129.0725,E,0.62,278.89,191017,,,A*66
$GPGGA,201339.408,2500.4626,N,12129.0630,E,1,5,2.06,19.2,M,15.2,M,,*6A
$GPRMC,201340.408,A,2500.4627,N,12129.0668,E,1.71,76.12,191017,,,A*5D
$GPGGA,201658.000,2500.4536,N,12129.0881,E,1,5,2.05,66.7,M,15.2,M,,*6C
$GPRMC,201659.000,A,2500.4573,N,12129.0563,E,1.98,106.23,191017,,,A*65
$GPGGA,202024.328,2500.4660,N,12129.0799,E,1,5,2.03,66.7,M,15.2,M,,*6B
$GPRMC,202025.328,A,2500.4654,N,12129.0839,E,0.08,193.81,191017,,,A*6A
$GPGGA,202337.312,2500.4612,N,12129.0540,E,1,5,2.02,58.6,M,15.2,M,,*6D
$GPRMC,202338.312,A,2500.4700,N,12129.0659,E,1.64,283.49,191017,,,A*69
$GPGGA,202651.282,2500.4640,N,12129.0583,E,1,4,2.10,7.0,M,15.2,M,,*56
$GPRMC,202653.000,A,2500.4637,N,12129.0576,E,0.75,19.89,191017,,,A*56
$GPGGA,203008.235,2500.4636,N,12129.0646,E,1,5,2.00,-2.0,M,15.2,M,,*72
$GPRMC,203009.235,A,2500.4644,N,12129.0640,E,0.87,80.29,191017,,,A*5F
$GPGGA,203323.000,2500.4584,N,12129.0676,E,1,5,2.00,23.0,M,15.2,M,,*6B
$GPRMC,203324.000,A,2500.4594,N,12129.0667,E,0.91,318.77,191017,,,A*62
$GPGGA,203641.000,2500.4688,N,12129.0791,E,1,5,1.99,66.3,M,15.2,M,,*6C
$GPRMC,203642.000,A,2500.4601,N,12129.0502,E,0.63,85.00,191017,,,A*52
$GPGGA,203956.144,2500.4631,N,12129.0283,E,1,5,3.58,13.5,M,15.2,M,,*6B
$GPRMC,203958.000,A,2500.4646,N,12129.0411,E,0.94,88.49,191017,,,A*5E
$GPGGA,204314.129,2500.4794,N,12129.0827,E,1,5,1.99,41.1,M,15.2,M,,*6D
$GPRMC,204315.129,A,2500.4718,N,12129.0541,E,0.34,277.54,191017,,,A*6A
$GPGGA,204627.098,2500.4651,N,12129.0595,E,1,5,1.99,28.6,M,15.2,M,,*67
$GPRMC,204629.000,A,2500.4647,N,12129.0587,E,0.10,33.00,191017,,,A*5E
$GPGGA,204946.068,2500.4702,N,12129.0737,E,1,5,1.99,61.0,M,15.2,M,,*66
$GPRMC,204947.068,A,2500.4702,N,12129.0796,E,0.76,282.24,191017,,,A*6B
$GPGGA,205305.037,2500.4708,N,12129.0618,E,1,5,1.99,45.5,M,15.2,M,,*65
$GPRMC,205307.000,A,2500.4701,N,12129.0562,E,0.04,293.55,191017,,,A*63
$GPGGA,205626.006,2500.4778,N,12129.0628,E,1,5,2.00,29.1,M,15.2,M,,*6A
$GPRMC,205627.006,A,2500.4763,N,12129.0747,E,1.34,74.76,191017,,,A*5B
$GPGGA,205947.975,2500.4790,N,12129.0551,E,1,5,2.43,22.4,M,15.2,M,,*6D
$GPRMC,205948.975,A,2500.4764,N,12129.0573,E,1.17,316.81,191017,,,A*6C
$GPGGA,210318.944,2500.4766,N,12129.0546,E,1,5,2.44,23.7,M,15.2,M,,*61
$GPRMC,210319.944,A,2500.4760,N,12129.0517,E,1.73,333.66,191017,,,A*6E
$GPGGA,210634.911,2500.4710,N,12129.0557,E,1,5,2.46,13.4,M,15.2,M,,*69
$GPRMC,210636.000,A,2500.4696,N,12129.0540,E,0.69,290.38,191017,,,A*6C
$GPGGA,210950.864,2500.4806,N,12129.0626,E,1,5,2.48,5.9,M,15.2,M,,*5E
$GPRMC,210951.864,A,2500.4694,N,12129.0603,E,0.23,49.18,191017,,,A*54
$GPGGA,211346.000,2500.4670,N,12129.0543,E,1,6,1.94,18.0,M,15.2,M,,*63
$GPRMC,211347.000,A,2500.4655,N,12129.0559,E,1.12,289.09,191017,,,A*6E
$GPGGA,211701.797,2500.4668,N,12129.0730,E,1,6,1.96,64.8,M,15.2,M,,*63
$GPRMC,211703.000,A,2500.4680,N,12129.0797,E,0.76,315.34,191017,,,A*6B
$GPGGA,212024.000,2500.4636,N,12129.0810,E,1,6,1.99,23.9,M,15.2,M,,*62
$GPRMC,212025.000,A,2500.4644,N,12129.0800,E,1.98,342.77,191017,,,A*66
$GPGGA,212334.738,2500.4653,N,12129.0331,E,1,6,2.02,22.1,M,15.2,M,,*6F
$GPRMC,212335.735,A,2500.4652,N,12129.0305,E,0.32,10.90,191017,,,A*50
$GPGGA,212643.711,2500.4619,N,12129.0581,E,1,6,2.05,37.6,M,15.2,M,,*66
$GPRMC,212644.713,A,2500.4597,N,12129.0658,E,1.84,320.73,191017,,,A*61
$GPGGA,213002.692,2500.4637,N,12129.0500,E,1,6,2.08,27.3,M,15.2,M,,*62
$GPRMC,213004.000,A,2500.4639,N,12129.0625,E,3.08,286.22,191017,,,A*65
$GPGGA,213319.645,2500.4692,N,12129.0815,E,1,6,2.10,65.8,M,15.2,M,,*63
$GPRMC,213320.645,A,2500.4665,N,12129.1039,E,3.23,296.92,191017,,,A*67
$GPGGA,213632.630,2500.4595,N,12129.0612,E,1,5,3.57,26.1,M,15.2,M,,*6F
$GPRMC,213633.630,A,2500.4600,N,12129.0605,E,0.96,301.90,191017,,,A*69
$GPGGA,213947.584,2500.4548,N,12129.0102,E,1,5,3.72,28.1,M,15.2,M,,*61
$GPRMC,213948.584,A,2500.4560,N,12129.0150,E,0.22,2.97,191017,,,A*6C
$GPGGA,214301.554,2500.4637,N,12129.0851,E,1,5,3.89,29.1,M,15.2,M,,*62
$GPRMC,214302.554,A,2500.4628,N,12129.0863,E,2.02,284.36,191017,,,A*63
$GPGGA,214617.478,2500.4280,N,12129.1250,E,1,5,2.34,38.5,M,15.2,M,,*6E
$GPRMC,214618.478,A,2500.4279,N,12129.1228,E,1.87,311.93,191017,,,A*6A
$GPGGA,214931.509,2500.4532,N,12129.1000,E,1,5,2.48,67.3,M,15.2,M,,*6C
$GPRMC,214932.509,A,2500.4500,N,12129.0852,E,3.97,281.99,191017,,,A*64
$GPGGA,215310.479,2500.4732,N,12129.0454,E,1,4,8.51,126.3,M,15.2,M,,*53
$GPRMC,215311.479,A,2500.4731,N,12129.0454,E,0.13,311.36,191017,,,A*60
$GPGGA,215631.445,2500.5189,N,12128.9150,E,1,4,8.98,208.8,M,15.2,M,,*55
$GPRMC,215632.445,A,2500.4504,N,12129.0323,E,0.28,346.05,191017,,,A*62
$GPGGA,215941.356,2500.4363,N,12129.1269,E,1,5,2.33,31.3,M,15.2,M,,*66
$GPRMC,215942.434,A,2500.4559,N,12129.0306,E,2.66,72.22,191017,,,A*5A
$GPGGA,220256.384,2500.4759,N,12129.0335,E,1,4,10.16,121.5,M,15.2,M,,*65
$GPRMC,220258.000,A,2500.4707,N,12129.0445,E,0.37,0.47,191017,,,A*66
$GPGGA,220607.338,2500.4517,N,12129.0776,E,1,5,2.33,49.4,M,15.2,M,,*62
$GPRMC,220608.338,A,2500.4547,N,12129.0741,E,0.90,274.55,191017,,,A*61
$GPGGA,220917.298,2500.4411,N,12129.1022,E,1,5,2.34,41.3,M,15.2,M,,*6F
$GPRMC,220918.295,A,2500.4409,N,12129.1015,E,0.79,300.26,191017,,,A*64
$GPGGA,221230.251,2500.4159,N,12129.1653,E,1,5,2.35,18.8,M,15.2,M,,*6A
$GPRMC,221231.252,A,2500.4165,N,12129.1647,E,0.66,291.70,191017,,,A*64
$GPGGA,221543.244,2500.4373,N,12129.1280,E,1,5,2.35,56.2,M,15.2,M,,*6D
$GPRMC,221544.245,A,2500.4390,N,12129.1282,E,0.78,287.95,191017,,,A*61
$GPGGA,221853.162,2500.4180,N,12129.1202,E,1,5,2.36,57.8,M,15.2,M,,*6A
$GPRMC,221854.162,A,2500.4180,N,12129.1199,E,1.24,280.55,191017,,,A*62
$GPGGA,222158.209,2500.4593,N,12129.0781,E,1,5,2.75,8.5,M,15.2,M,,*5C
$GPRMC,222159.206,A,2500.4588,N,12129.0780,E,0.52,314.74,191017,,,A*68
$GPGGA,222504.155,2500.4569,N,12129.0670,E,1,5,2.78,90.7,M,15.2,M,,*6F
$GPRMC,222505.156,A,2500.4558,N,12129.0671,E,0.50,290.79,191017,,,A*63
$GPGGA,222812.095,2500.4648,N,12129.0355,E,1,5,2.81,11.5,M,15.2,M,,*67
$GPRMC,222813.130,A,2500.4660,N,12129.0394,E,0.40,339.61,191017,,,A*65
$GPGGA,223121.129,2500.4683,N,12129.0448,E,1,5,2.85,-39.6,M,15.2,M,,*45
$GPRMC,223122.124,A,2500.4673,N,12129.0478,E,0.66,290.06,191017,,,A*6A
$GPGGA,223436.088,2500.4625,N,12129.0575,E,1,5,2.88,41.9,M,15.2,M,,*6F
$GPRMC,223438.000,A,2500.4586,N,12129.0624,E,0.62,305.81,191017,,,A*67
$GPGGA,223759.000,2500.4745,N,12129.0367,E,1,5,2.92,43.0,M,15.2,M,,*67
$GPRMC,223800.000,A,2500.4767,N,12129.0343,E,7.86,302.75,191017,,,A*68
$GPGGA,224123.000,2500.4516,N,12129.0379,E,1,5,2.96,-16.5,M,15.2,M,,*4C
$GPRMC,224124.000,A,2500.4504,N,12129.0423,E,1.48,42.25,191017,,,A*50
$GPGGA,224451.000,2500.4608,N,12128.9789,E,1,5,3.00,-82.0,M,15.2,M,,*45
$GPRMC,224452.000,A,2500.4609,N,12128.9780,E,1.89,299.49,191017,,,A*6B
$GPGGA,224812.946,2500.4607,N,12129.0160,E,1,6,2.43,-22.6,M,15.2,M,,*4A
$GPRMC,224814.000,A,2500.4630,N,12129.0269,E,2.36,281.94,191017,,,A*6B
$GPGGA,225128.000,2500.4463,N,12129.0802,E,1,6,2.45,30.8,M,15.2,M,,*6B
$GPRMC,225129.000,A,2500.4480,N,12129.0774,E,0.51,319.18,191017,,,A*6A
$GPGGA,225438.946,2500.4787,N,12129.0470,E,1,6,2.48,35.6,M,15.2,M,,*62
$GPRMC,225439.855,A,2500.4609,N,12129.0763,E,2.66,273.20,191017,,,A*63
$GPGGA,225757.000,2500.4516,N,12129.1010,E,1,6,2.51,57.4,M,15.2,M,,*64
$GPRMC,225758.000,A,2500.4498,N,12129.1013,E,3.43,268.19,191017,,,A*62
$GPGGA,230110.000,2500.4543,N,12129.0954,E,1,5,4.04,57.7,M,15.2,M,,*6B
$GPRMC,230111.000,A,2500.4520,N,12129.1054,E,2.52,286.16,191017,,,A*62
$GPGGA,230438.000,2500.4776,N,12129.0261,E,1,5,3.20,13.3,M,15.2,M,,*68
$GPRMC,230439.000,A,2500.4791,N,12129.0162,E,2.99,270.78,191017,,,A*66
$GPGGA,230747.783,2500.4575,N,12129.0701,E,1,5,2.66,0.3,M,15.2,M,,*5C
$GPRMC,230748.779,A,2500.4551,N,12129.0688,E,6.47,265.68,191017,,,A*65
$GPGGA,231101.748,2500.4647,N,12129.0256,E,1,6,2.62,-15.2,M,15.2,M,,*44
$GPRMC,231103.000,A,2500.4635,N,12129.0276,E,1.71,62.05,191017,,,A*5C
$GPGGA,231411.761,2500.4858,N,12128.9919,E,1,6,2.64,-14.3,M,15.2,M,,*45
$GPRMC,231412.770,A,2500.4893,N,12128.9874,E,5.81,295.55,191017,,,A*6F
$GPGGA,231730.593,2500.4453,N,12129.1188,E,1,6,2.67,111.4,M,15.2,M,,*59
$GPRMC,231734.000,A,2500.4523,N,12129.0669,E,0.35,211.06,191017,,,A*64
$GPGGA,232045.564,2500.4447,N,12129.1037,E,1,6,2.70,113.4,M,15.2,M,,*53
$GPRMC,232046.549,A,2500.4417,N,12129.1062,E,0.40,346.81,191017,,,A*69
$GPGGA,232401.627,2500.4742,N,12129.0336,E,1,5,2.81,-34.8,M,15.2,M,,*4E
$GPRMC,232402.627,A,2500.4741,N,12129.0528,E,8.35,274.48,191017,,,A*63
$GPGGA,232722.000,2500.4625,N,12129.0327,E,1,6,2.75,-28.8,M,15.2,M,,*4A
$GPRMC,232723.000,A,2500.4635,N,12129.0307,E,5.77,271.95,191017,,,A*67
$GPGGA,233031.516,2500.4502,N,12129.0516,E,1,6,2.76,-27.4,M,15.2,M,,*4E
$GPRMC,233032.532,A,2500.4553,N,12129.0530,E,6.15,106.95,191017,,,A*60
$GPGGA,233404.000,2500.4633,N,12129.1217,E,1,5,5.92,113.5,M,15.2,M,,*5C
$GPRMC,233405.000,A,2500.4635,N,12129.1187,E,0.88,92.58,191017,,,A*51
$GPGGA,233728.000,2500.4700,N,12129.0169,E,1,5,5.16,-25.1,M,15.2,M,,*4A
$GPRMC,233729.000,A,2500.4701,N,12129.0070,E,0.85,297.06,191017,,,A*63
$GPGGA,234054.000,2500.4508,N,12129.1190,E,1,7,2.39,107.7,M,15.2,M,,*5E
$GPRMC,234055.000,A,2500.4476,N,12129.1335,E,1.65,87.44,191017,,,A*52
$GPGGA,234431.000,2500.4643,N,12129.0756,E,1,6,3.40,60.4,M,15.2,M,,*65
$GPRMC,234432.000,A,2500.4656,N,12129.0636,E,2.02,262.90,191017,,,A*62
$GPGGA,234743.389,2500.4644,N,12129.0672,E,1,6,3.14,38.6,M,15.2,M,,*6F
$GPRMC,234746.000,A,2500.4595,N,12129.0703,E,2.48,76.79,191017,,,A*57
$GPGGA,235101.359,2500.4656,N,12129.0734,E,1,4,5.78,45.0,M,15.2,M,,*61
$GPRMC,235102.359,A,2500.4587,N,12129.0778,E,3.50,294.13,191017,,,A*6A
$GPGGA,235417.344,2500.4647,N,12129.0447,E,1,7,2.81,34.7,M,15.2,M,,*6B
$GPRMC,235418.344,A,2500.4672,N,12129.0294,E,0.92,293.51,191017,,,A*6A
$GPGGA,235732.297,2500.4382,N,12129.0685,E,1,5,3.19,40.0,M,15.2,M,,*66
$GPRMC,235735.000,A,2500.4486,N,12129.0928,E,4.66,105.70,191017,,,A*60
$GPGGA,000044.241,2500.4522,N,12129.0621,E,1,6,2.82,44.9,M,15.2,M,,*60
$GPRMC,000045.245,A,2500.4543,N,12129.0635,E,0.89,358.20,201017,,,A*6C
$GPGGA,000353.200,2500.4455,N,12129.0872,E,1,7,2.68,49.8,M,15.2,M,,*60
$GPRMC,000354.201,A,2500.4466,N,12129.0860,E,1.46,275.94,201017,,,A*64
$GPGGA,000706.170,2500.4659,N,12129.0077,E,1,5,4.21,23.3,M,15.2,M,,*6D
$GPRMC,000712.228,A,2500.4610,N,12129.0546,E,1.12,89.37,201017,,,A*5A
$GPGGA,001024.170,2500.4570,N,12129.0522,E,1,7,2.59,14.7,M,15.2,M,,*6D
$GPRMC,001025.193,A,2500.4638,N,12129.0562,E,1.72,297.60,201017,,,A*6E
$GPGGA,001342.000,2500.4687,N,12129.0498,E,1,7,2.54,6.9,M,15.2,M,,*53
$GPRMC,001343.000,A,2500.4592,N,12129.1102,E,1.86,290.47,201017,,,A*6F
$GPGGA,001649.114,2500.4582,N,12129.1114,E,1,6,2.58,70.3,M,15.2,M,,*69
$GPRMC,001650.120,A,2500.4624,N,12129.1084,E,1.47,234.17,201017,,,A*6C
$GPGGA,001958.091,2500.4660,N,12129.0337,E,1,7,2.47,-15.4,M,15.2,M,,*41
$GPRMC,001959.103,A,2500.4714,N,12129.0289,E,1.53,279.27,201017,,,A*68
$GPGGA,002310.077,2500.4650,N,12128.9968,E,1,7,2.43,-47.0,M,15.2,M,,*40
$GPRMC,002311.087,A,2500.4699,N,12128.9909,E,0.81,95.89,201017,,,A*55
$GPGGA,002615.001,2500.4475,N,12129.0637,E,1,6,2.59,35.8,M,15.2,M,,*63
$GPRMC,002616.010,A,2500.4515,N,12129.0642,E,8.90,265.49,201017,,,A*6F
$GPGGA,002921.991,2500.4652,N,12129.0848,E,1,6,2.56,56.5,M,15.2,M,,*6D
$GPRMC,002922.994,A,2500.4652,N,12129.0814,E,1.42,329.59,201017,,,A*61
$GPGGA,003239.000,2500.4674,N,12129.0743,E,1,7,2.34,23.1,M,15.2,M,,*6C
$GPRMC,003240.000,A,2500.4649,N,12129.0821,E,1.01,322.58,201017,,,A*6A
$GPGGA,003554.000,2500.4650,N,12129.0655,E,1,5,2.61,32.5,M,15.2,M,,*66
$GPRMC,003555.000,A,2500.4544,N,12129.0676,E,4.91,283.47,201017,,,A*63
$GPGGA,003907.909,2500.3773,N,12129.1393,E,1,5,2.66,44.3,M,15.2,M,,*65
$GPRMC,003918.000,A,2500.4680,N,12129.0586,E,0.96,320.52,201017,,,A*6E
$GPGGA,004242.000,2500.4728,N,12129.0746,E,1,5,2.74,68.3,M,15.2,M,,*61
$GPRMC,004243.000,A,2500.4716,N,12129.0770,E,3.93,279.40,201017,,,A*61
$GPGGA,004558.845,2500.4551,N,12129.0501,E,1,5,2.71,27.9,M,15.2,M,,*6D
$GPRMC,004559.845,A,2500.4606,N,12129.0443,E,0.58,341.52,201017,,,A*6A
$GPGGA,004920.000,2500.4630,N,12129.0106,E,1,5,4.25,-50.7,M,15.2,M,,*44
$GPRMC,004921.000,A,2500.4645,N,12129.0101,E,3.15,294.46,201017,,,A*62
$GPGGA,005231.783,2500.4632,N,12129.0914,E,1,5,2.67,75.7,M,15.2,M,,*61
$GPRMC,005233.000,A,2500.4562,N,12129.1114,E,0.87,302.13,201017,,,A*6E
$GPGGA,005543.769,2500.4840,N,12129.0552,E,1,5,2.65,35.9,M,15.2,M,,*6A
$GPRMC,005544.769,A,2500.4637,N,12129.0745,E,1.26,102.49,201017,,,A*66
