$GPGGA,102428.000,2500.3611,N,12129.0720,E,1,3,3.15,134.9,M,15.2,M,,*52
$GPRMC,102429.000,A,2500.3600,N,12129.0724,E,0.14,281.49,191017,,,A*64
$GPGGA,102641.000,2500.3107,N,12128.8403,E,1,3,3.03,134.9,M,15.2,M,,*53
$GPRMC,102642.000,A,2500.3110,N,12128.8399,E,0.45,312.63,191017,,,A*61
$GPGGA,102942.000,2500.3490,N,12128.3883,E,1,3,1.85,134.8,M,15.2,M,,*56
$GPRMC,102943.000,A,2500.3495,N,12128.3876,E,0.38,139.37,191017,,,A*66
$GPGGA,103149.000,2500.2605,N,12128.2495,E,1,3,2.81,133.9,M,15.2,M,,*50
$GPRMC,103150.000,A,2500.2481,N,12128.2588,E,1.14,248.49,191017,,,A*67
$GPGGA,103401.000,2500.0014,N,12128.1258,E,1,3,3.93,134.9,M,15.2,M,,*5C
$GPRMC,103402.000,A,2500.0013,N,12128.1262,E,0.35,173.75,191017,,,A*6E
$GPGGA,103634.000,2459.9888,N,12128.1245,E,1,3,2.80,134.9,M,15.2,M,,*5E
$GPRMC,103635.000,A,2459.9921,N,12128.1274,E,0.10,136.01,191017,,,A*66
$GPGGA,103709.090,2459.9923,N,12128.1222,E,1,5,1.24,122.3,M,15.2,M,,*5F
$GPRMC,103710.090,A,2459.9950,N,12128.1241,E,0.53,11.77,191017,,,A*5B
$GPGGA,103746.069,2459.9949,N,12128.1148,E,1,5,1.24,122.1,M,15.2,M,,*53
$GPRMC,103747.071,A,2459.9981,N,12128.1175,E,1.26,326.47,191017,,,A*69
$GPGGA,103822.089,2500.0002,N,12128.1226,E,1,5,1.24,122.2,M,15.2,M,,*5A
$GPRMC,103823.084,A,2459.9998,N,12128.1209,E,0.47,2.75,191017,,,A*6C
$GPGGA,103900.090,2459.9952,N,12128.1235,E,1,4,1.37,122.1,M,15.2,M,,*59
$GPRMC,103901.091,A,2459.9951,N,12128.1237,E,0.33,34.56,191017,,,A*56
$GPGGA,103941.098,2459.9935,N,12128.1217,E,6,3,2.75,122.1,M,15.2,M,,*50
$GPRMC,103943.088,A,2459.9887,N,12128.1168,E,0.24,8.97,191017,,,A*6F
$GPGGA,104019.072,2459.9938,N,12128.1188,E,1,4,1.37,122.1,M,15.2,M,,*5A
$GPRMC,104020.067,A,2459.9940,N,12128.1199,E,0.47,334.56,191017,,,A*65
$GPGGA,104056.037,2500.0214,N,12128.1170,E,1,4,1.36,122.2,M,15.2,M,,*54
$GPRMC,104057.052,A,2500.0153,N,12128.1150,E,0.69,12.42,191017,,,A*56
$GPGGA,104133.056,2459.9971,N,12128.1262,E,1,5,1.25,122.1,M,15.2,M,,*5D
$GPRMC,104134.040,A,2500.0028,N,12128.1286,E,0.89,20.98,191017,,,A*5C
$GPGGA,104219.032,2500.0059,N,12128.1251,E,1,4,1.37,125.2,M,15.2,M,,*55
$GPRMC,104220.056,A,2459.9965,N,12128.1221,E,0.61,350.12,191017,,,A*64
$GPGGA,104255.010,2500.0116,N,12128.1203,E,1,4,1.37,119.8,M,15.2,M,,*55
$GPRMC,104256.008,A,2500.0125,N,12128.1196,E,4.91,278.09,191017,,,A*63
$GPGGA,104329.043,2459.9989,N,12128.1206,E,1,5,1.26,125.5,M,15.2,M,,*55
$GPRMC,104330.024,A,2500.0030,N,12128.1211,E,1.49,285.80,191017,,,A*66
$GPGGA,104407.020,2500.0004,N,12128.1238,E,1,4,1.37,123.2,M,15.2,M,,*5E
$GPRMC,104408.020,A,2500.0015,N,12128.1212,E,0.59,286.74,191017,,,A*62
$GPGGA,104446.037,2459.9947,N,12128.1249,E,1,4,1.39,125.1,M,15.2,M,,*5A
$GPRMC,104447.039,A,2459.9953,N,12128.1263,E,0.60,66.98,191017,,,A*5C
$GPGGA,104525.984,2500.0064,N,12128.1273,E,1,4,1.38,115.9,M,15.2,M,,*50
$GPRMC,104526.984,A,2500.0064,N,12128.1264,E,0.30,119.03,191017,,,A*65
$GPGGA,104601.969,2500.0103,N,12128.1201,E,1,4,1.38,115.4,M,15.2,M,,*5E
$GPRMC,104602.971,A,2500.0114,N,12128.1198,E,0.66,3.54,191017,,,A*67
$GPGGA,104635.989,2500.0049,N,12128.1174,E,1,4,1.39,123.1,M,15.2,M,,*58
$GPRMC,104636.988,A,2500.0052,N,12128.1183,E,0.10,48.55,191017,,,A*50
$GPGGA,104713.994,2459.9963,N,12128.1185,E,1,4,1.40,124.5,M,15.2,M,,*57
$GPRMC,104714.974,A,2459.9870,N,12128.1163,E,1.66,14.54,191017,,,A*58
$GPGGA,104755.991,2459.9953,N,12128.1158,E,1,4,1.39,129.2,M,15.2,M,,*57
$GPRMC,104756.994,A,2459.9945,N,12128.1168,E,0.25,202.44,191017,,,A*6E
$GPGGA,104835.984,2459.9932,N,12128.1154,E,1,5,1.27,139.1,M,15.2,M,,*5D
$GPRMC,104836.993,A,2459.9956,N,12128.1163,E,0.59,54.60,191017,,,A*55
$GPGGA,104914.991,2459.9897,N,12128.1181,E,1,5,1.28,111.5,M,15.2,M,,*5C
$GPRMC,104915.993,A,2459.9904,N,12128.1180,E,1.97,16.95,191017,,,A*50
$GPGGA,104952.989,2459.9913,N,12128.1169,E,1,5,1.28,98.5,M,15.2,M,,*6C
$GPRMC,104953.988,A,2459.9944,N,12128.1206,E,0.74,337.65,191017,,,A*62
$GPGGA,105029.971,2459.9883,N,12128.1249,E,1,4,1.41,132.9,M,15.2,M,,*55
$GPRMC,105030.972,A,2459.9886,N,12128.1238,E,0.15,2.13,191017,,,A*6B
$GPGGA,105106.962,2459.9900,N,12128.1207,E,1,5,1.28,146.4,M,15.2,M,,*5B
$GPRMC,105107.986,A,2459.9952,N,12128.1219,E,1.05,10.55,191017,,,A*5F
$GPGGA,105143.926,2459.9948,N,12128.1191,E,1,5,1.29,167.8,M,15.2,M,,*54
$GPRMC,105144.930,A,2459.9954,N,12128.1186,E,0.53,355.84,191017,,,A*6A
$GPGGA,105221.913,2459.9938,N,12128.1256,E,1,5,1.29,209.2,M,15.2,M,,*5B
$GPRMC,105222.912,A,2459.9950,N,12128.1253,E,0.41,62.72,191017,,,A*5B
$GPGGA,105301.950,2500.0153,N,12128.1171,E,1,5,1.29,-33.1,M,15.2,M,,*4D
$GPRMC,105302.949,A,2500.0161,N,12128.1177,E,1.99,1.26,191017,,,A*6D
$GPGGA,105339.927,2459.9899,N,12128.1213,E,1,5,1.29,143.7,M,15.2,M,,*57
$GPRMC,105340.934,A,2459.9953,N,12128.1219,E,3.15,303.41,191017,,,A*61
$GPGGA,105418.931,2459.9018,N,12128.0929,E,1,5,1.29,-2.0,M,15.2,M,,*78
$GPRMC,105419.926,A,2459.8983,N,12128.0911,E,5.86,227.51,191017,,,A*6D
$GPGGA,105458.928,2459.8668,N,12128.0847,E,1,5,1.30,4.4,M,15.2,M,,*5A
$GPRMC,105459.925,A,2459.8643,N,12128.0845,E,6.00,200.30,191017,,,A*66
$GPGGA,105537.885,2459.6606,N,12128.0204,E,1,5,1.30,50.5,M,15.2,M,,*6F
$GPRMC,105538.882,A,2459.6598,N,12128.0170,E,6.54,222.24,191017,,,A*6C
$GPGGA,105615.850,2459.6220,N,12127.9531,E,1,4,1.45,86.7,M,15.2,M,,*69
$GPRMC,105616.850,A,2459.6191,N,12127.9484,E,7.83,262.83,191017,,,A*6B
$GPGGA,105658.870,2459.5711,N,12127.9194,E,1,4,1.45,92.9,M,15.2,M,,*66
$GPRMC,105659.871,A,2459.5769,N,12127.9145,E,1.78,256.22,191017,,,A*67
$GPGGA,105741.903,2459.4887,N,12127.6973,E,1,5,1.31,40.4,M,15.2,M,,*65
$GPRMC,105742.902,A,2459.4895,N,12127.6913,E,20.58,279.46,191017,,,A*5E
$GPGGA,105818.819,2459.4861,N,12127.6656,E,1,5,1.31,250.6,M,15.2,M,,*5D
$GPRMC,105819.799,A,2459.4881,N,12127.6649,E,0.35,153.01,191017,,,A*67
$GPGGA,105906.000,2459.5006,N,12127.5610,E,1,4,1.48,54.4,M,15.2,M,,*61
$GPRMC,105907.000,A,2459.5014,N,12127.5637,E,0.70,207.76,191017,,,A*62
$GPGGA,105943.000,2459.5056,N,12127.5568,E,1,5,1.31,76.2,M,15.2,M,,*60
$GPRMC,105944.000,A,2459.5061,N,12127.5539,E,18.84,328.57,191017,,,A*57
$GPGGA,110020.857,2459.5833,N,12127.4352,E,1,5,1.32,74.2,M,15.2,M,,*66
$GPRMC,110021.857,A,2459.5826,N,12127.4347,E,1.61,261.80,191017,,,A*63
$GPGGA,110059.850,2459.5848,N,12127.4335,E,1,4,1.50,72.9,M,15.2,M,,*6A
$GPRMC,110100.850,A,2459.5846,N,12127.4298,E,0.59,178.47,191017,,,A*69
$GPGGA,110146.000,2459.5751,N,12127.4311,E,1,3,2.63,72.9,M,15.2,M,,*6D
$GPRMC,110147.000,A,2459.5745,N,12127.4318,E,0.81,180.20,191017,,,A*61
$GPGGA,110224.794,2459.5982,N,12127.4332,E,1,4,1.50,73.2,M,15.2,M,,*6F
$GPRMC,110225.791,A,2459.5979,N,12127.4325,E,0.65,129.64,191017,,,A*6F
$GPGGA,110305.828,2459.5850,N,12127.4296,E,6,3,3.07,73.2,M,15.2,M,,*64
$GPRMC,110309.000,A,2459.5804,N,12127.4379,E,2.58,312.08,191017,,,A*61
$GPGGA,110350.838,2459.5906,N,12127.4411,E,1,3,2.39,73.2,M,15.2,M,,*65
$GPRMC,110351.838,A,2459.5916,N,12127.4379,E,0.39,140.18,191017,,,A*6C
$GPGGA,110428.855,2459.5748,N,12127.4321,E,1,4,1.53,73.2,M,15.2,M,,*6E
$GPRMC,110429.851,A,2459.5761,N,12127.4320,E,0.66,134.11,191017,,,A*69
$GPGGA,110508.820,2459.5808,N,12127.4276,E,1,5,1.34,62.7,M,15.2,M,,*62
$GPRMC,110509.845,A,2459.5728,N,12127.4299,E,1.18,207.23,191017,,,A*6B
$GPGGA,110548.794,2459.5924,N,12127.4259,E,1,5,1.34,76.8,M,15.2,M,,*6E
$GPRMC,110549.818,A,2459.5890,N,12127.4296,E,0.57,175.47,191017,,,A*6A
$GPGGA,110631.811,2459.6103,N,12127.4478,E,1,4,2.52,57.1,M,15.2,M,,*62
$GPRMC,110633.000,A,2459.5872,N,12127.4332,E,1.13,64.87,191017,,,A*5A
$GPGGA,110712.820,2459.5833,N,12127.4367,E,1,5,1.35,54.3,M,15.2,M,,*62
$GPRMC,110713.804,A,2459.5853,N,12127.4370,E,0.58,163.80,191017,,,A*6F
$GPGGA,110751.788,2459.5700,N,12127.4322,E,1,4,1.57,95.7,M,15.2,M,,*6A
$GPRMC,110752.781,A,2459.5672,N,12127.4287,E,4.04,189.77,191017,,,A*6D
$GPGGA,110828.753,2459.6261,N,12127.3689,E,1,5,1.35,95.7,M,15.2,M,,*6A
$GPRMC,110829.754,A,2459.6268,N,12127.3642,E,10.75,265.84,191017,,,A*5E
$GPGGA,111001.785,2459.6557,N,12127.2964,E,1,3,2.87,95.7,M,15.2,M,,*60
$GPRMC,111002.785,A,2459.6563,N,12127.2969,E,0.54,30.29,191017,,,A*5E
$GPGGA,111042.744,2459.6436,N,12127.2778,E,1,4,1.93,95.7,M,15.2,M,,*6E
$GPRMC,111043.769,A,2459.6499,N,12127.2914,E,4.96,231.30,191017,,,A*66
$GPGGA,111125.762,2459.6361,N,12127.2796,E,1,3,2.83,95.7,M,15.2,M,,*6A
$GPRMC,111126.762,A,2459.6369,N,12127.2777,E,0.24,95.49,191017,,,A*53
$GPGGA,111208.755,2459.6338,N,12127.2788,E,1,3,2.81,95.7,M,15.2,M,,*63
$GPRMC,111210.000,A,2459.6351,N,12127.2793,E,0.49,56.90,191017,,,A*57
$GPGGA,111317.000,2459.6504,N,12127.2851,E,1,4,8.88,79.8,M,15.2,M,,*60
$GPRMC,111318.000,A,2459.6507,N,12127.2840,E,2.60,216.99,191017,,,A*6C
$GPGGA,111404.000,2459.6000,N,12127.3584,E,1,4,2.48,63.7,M,15.2,M,,*62
$GPRMC,111405.000,A,2459.5982,N,12127.3603,E,4.52,108.13,191017,,,A*64
$GPGGA,111447.000,2459.6270,N,12127.2801,E,1,4,1.82,81.8,M,15.2,M,,*67
$GPRMC,111448.000,A,2459.6310,N,12127.2843,E,2.26,179.78,191017,,,A*6A
$GPGGA,111539.000,2459.6337,N,12127.2776,E,1,4,7.26,101.4,M,15.2,M,,*5F
$GPRMC,111540.000,A,2459.6349,N,12127.2762,E,6.41,53.63,191017,,,A*55
$GPGGA,111621.697,2459.6328,N,12127.2660,E,1,5,1.58,77.6,M,15.2,M,,*69
$GPRMC,111622.691,A,2459.6325,N,12127.2646,E,1.04,165.43,191017,,,A*61
$GPGGA,111714.000,2459.6356,N,12127.2846,E,1,4,1.95,77.0,M,15.2,M,,*63
$GPRMC,111715.000,A,2459.6360,N,12127.2860,E,1.97,72.82,191017,,,A*51
$GPGGA,111803.000,2459.6489,N,12127.2898,E,1,4,1.96,167.2,M,15.2,M,,*5D
$GPRMC,111804.000,A,2459.6495,N,12127.2924,E,2.48,169.15,191017,,,A*66
$GPGGA,111931.000,2459.6347,N,12127.2798,E,1,4,2.22,41.4,M,15.2,M,,*68
$GPRMC,111932.000,A,2459.6349,N,12127.2792,E,0.53,47.41,191017,,,A*53
$GPGGA,112014.674,2459.6394,N,12127.2860,E,1,5,1.95,66.0,M,15.2,M,,*69
$GPRMC,112015.674,A,2459.6493,N,12127.2887,E,1.29,266.37,191017,,,A*6E
$GPGGA,112053.654,2459.6343,N,12127.2859,E,1,4,2.22,86.8,M,15.2,M,,*60
$GPRMC,112054.654,A,2459.6355,N,12127.2877,E,0.55,311.77,191017,,,A*64
$GPGGA,112135.667,2459.6303,N,12127.2881,E,1,6,1.57,75.8,M,15.2,M,,*6F
$GPRMC,112136.666,A,2459.6282,N,12127.2830,E,1.24,281.91,191017,,,A*6F
$GPGGA,112221.685,2459.6446,N,12127.2684,E,1,4,2.22,63.2,M,15.2,M,,*66
$GPRMC,112222.664,A,2459.6332,N,12127.2769,E,3.08,53.87,191017,,,A*54
$GPGGA,112314.645,2459.6117,N,12127.2684,E,1,5,1.98,36.5,M,15.2,M,,*68
$GPRMC,112315.645,A,2459.6085,N,12127.2629,E,0.32,179.26,191017,,,A*60
$GPGGA,112355.636,2459.6376,N,12127.2988,E,1,4,2.22,118.2,M,15.2,M,,*56
$GPRMC,112356.636,A,2459.6292,N,12127.2869,E,11.46,51.37,191017,,,A*65
$GPGGA,112441.000,2459.6224,N,12127.2583,E,1,4,2.22,-40.0,M,15.2,M,,*45
$GPRMC,112442.000,A,2459.6289,N,12127.2675,E,1.51,231.16,191017,,,A*6D
$GPGGA,112531.000,2459.6259,N,12127.2743,E,1,4,2.22,91.4,M,15.2,M,,*62
$GPRMC,112532.000,A,2459.6222,N,12127.2706,E,2.06,45.22,191017,,,A*58
$GPGGA,112647.000,2459.6276,N,12127.2498,E,1,5,2.01,-13.9,M,15.2,M,,*42
$GPRMC,112648.000,A,2459.6280,N,12127.2496,E,3.75,285.99,191017,,,A*6F
$GPGGA,112801.000,2459.6180,N,12127.2700,E,1,5,2.13,17.3,M,15.2,M,,*66
$GPRMC,112802.000,A,2459.6160,N,12127.2655,E,2.77,50.66,191017,,,A*56
$GPGGA,112903.588,2459.6452,N,12127.2996,E,1,4,2.28,212.1,M,15.2,M,,*57
$GPRMC,112904.588,A,2459.6458,N,12127.2997,E,0.86,348.15,191017,,,A*69
$GPGGA,112957.578,2459.6381,N,12127.3001,E,1,5,2.13,163.6,M,15.2,M,,*5D
$GPRMC,112958.578,A,2459.6383,N,12127.3006,E,9.80,64.69,191017,,,A*57
$GPGGA,113102.568,2459.6096,N,12127.2410,E,1,6,1.77,-141.9,M,15.2,M,,*75
$GPRMC,113103.568,A,2459.6020,N,12127.2287,E,3.94,40.85,191017,,,A*5A
$GPGGA,113201.558,2459.6196,N,12127.2653,E,1,6,1.79,-10.6,M,15.2,M,,*46
$GPRMC,113202.558,A,2459.6066,N,12127.2523,E,0.14,2.45,191017,,,A*61
$GPGGA,113251.548,2459.6352,N,12127.2916,E,1,6,1.80,74.3,M,15.2,M,,*6A
$GPRMC,113252.548,A,2459.6342,N,12127.2907,E,5.96,25.79,191017,,,A*5F
$GPGGA,113528.000,2459.6232,N,12127.2705,E,1,5,1.88,28.9,M,15.2,M,,*69
$GPRMC,113529.000,A,2459.6241,N,12127.2724,E,2.71,46.10,191017,,,A*54
$GPGGA,113625.513,2459.6182,N,12127.2685,E,1,6,1.84,11.7,M,15.2,M,,*6A
$GPRMC,113626.513,A,2459.6303,N,12127.2875,E,2.29,52.25,191017,,,A*5D
$GPGGA,113810.504,2459.6300,N,12127.2920,E,1,6,1.85,84.6,M,15.2,M,,*60
$GPRMC,113812.000,A,2459.6261,N,12127.2920,E,1.15,324.33,191017,,,A*6E
$GPGGA,113928.470,2459.6171,N,12127.2702,E,1,6,1.87,24.9,M,15.2,M,,*65
$GPRMC,113930.000,A,2459.6203,N,12127.2714,E,2.00,28.32,191017,,,A*5B
$GPGGA,114019.000,2459.6586,N,12127.2804,E,1,5,2.91,115.4,M,15.2,M,,*56
$GPRMC,114020.000,A,2459.6574,N,12127.2896,E,10.52,310.17,191017,,,A*5D
$GPGGA,114059.448,2459.6318,N,12127.2637,E,1,6,1.94,-3.5,M,15.2,M,,*7A
$GPRMC,114101.000,A,2459.6329,N,12127.2559,E,1.94,296.82,191017,,,A*66
$GPGGA,114154.442,2459.6378,N,12127.2866,E,1,5,2.19,138.6,M,15.2,M,,*52
$GPRMC,114155.442,A,2459.6317,N,12127.2889,E,3.13,241.88,191017,,,A*65
$GPGGA,114244.449,2459.6697,N,12127.3256,E,1,5,2.19,428.0,M,15.2,M,,*55
$GPRMC,114245.449,A,2459.6603,N,12127.3129,E,3.70,231.88,191017,,,A*6C
$GPGGA,114338.000,2459.6255,N,12127.2645,E,1,4,6.49,-33.6,M,15.2,M,,*4E
$GPRMC,114339.000,A,2459.6205,N,12127.2561,E,6.58,239.48,191017,,,A*6F
$GPGGA,114430.431,2459.6511,N,12127.3101,E,1,5,2.21,277.6,M,15.2,M,,*52
$GPRMC,114431.431,A,2459.6537,N,12127.3094,E,10.55,233.01,191017,,,A*53
$GPGGA,114519.000,2459.6149,N,12127.2551,E,1,4,2.40,-85.6,M,15.2,M,,*43
$GPRMC,114520.000,A,2459.6150,N,12127.2568,E,0.68,201.56,191017,,,A*6A
$GPGGA,114602.414,2459.6179,N,12127.2671,E,1,4,2.41,5.1,M,15.2,M,,*5A
$GPRMC,114604.000,A,2459.6202,N,12127.2708,E,2.13,48.47,191017,,,A*5E
$GPGGA,114649.407,2459.6080,N,12127.2462,E,1,5,2.23,-181.6,M,15.2,M,,*72
$GPRMC,114650.407,A,2459.6177,N,12127.2657,E,2.89,220.26,191017,,,A*6E
$GPGGA,114732.399,2459.6221,N,12127.2712,E,1,4,2.43,9.1,M,15.2,M,,*5E
$GPRMC,114734.000,A,2459.6202,N,12127.2686,E,3.83,257.75,191017,,,A*6E
$GPGGA,114826.392,2459.6191,N,12127.2647,E,1,5,2.16,-73.4,M,15.2,M,,*42
$GPRMC,114828.000,A,2459.6196,N,12127.2634,E,0.44,352.82,191017,,,A*6F
$GPGGA,114923.000,2459.6268,N,12127.2593,E,1,4,2.45,54.2,M,15.2,M,,*68
$GPRMC,114924.000,A,2459.6272,N,12127.2593,E,1.03,323.85,191017,,,A*66
$GPGGA,115007.373,2459.6209,N,12127.2467,E,1,4,2.46,-109.9,M,15.2,M,,*70
$GPRMC,115008.373,A,2459.6302,N,12127.2599,E,4.88,321.77,191017,,,A*62
$GPGGA,115049.366,2459.6226,N,12127.2508,E,1,4,2.47,-134.4,M,15.2,M,,*79
$GPRMC,115050.366,A,2459.6335,N,12127.2683,E,1.96,314.67,191017,,,A*6A
$GPGGA,115131.359,2459.6092,N,12127.2362,E,1,4,2.48,-196.1,M,15.2,M,,*7E
$GPRMC,115132.359,A,2459.6230,N,12127.2591,E,2.43,271.21,191017,,,A*6C
$GPGGA,115217.352,2459.6223,N,12127.2897,E,1,4,3.71,23.7,M,15.2,M,,*64
$GPRMC,115218.352,A,2459.6137,N,12127.2838,E,19.16,96.64,191017,,,A*66
$GPGGA,115301.344,2459.6151,N,12127.2639,E,1,5,2.31,-163.2,M,15.2,M,,*70
$GPRMC,115302.344,A,2459.6251,N,12127.2819,E,0.81,235.94,191017,,,A*69
$GPGGA,115343.337,2459.6213,N,12127.2790,E,1,5,2.32,13.3,M,15.2,M,,*6C
$GPRMC,115344.337,A,2459.6211,N,12127.2762,E,0.08,202.73,191017,,,A*64
$GPGGA,115428.000,2459.5867,N,12127.2495,E,1,4,2.52,-231.6,M,15.2,M,,*70
$GPRMC,115429.000,A,2459.5914,N,12127.2550,E,2.38,267.26,191017,,,A*63
$GPGGA,115514.322,2459.6432,N,12127.3099,E,1,5,2.34,154.2,M,15.2,M,,*53
$GPRMC,115515.322,A,2459.6435,N,12127.3120,E,3.55,238.56,191017,,,A*66
$GPGGA,115604.000,2459.6426,N,12127.2678,E,1,5,2.35,-72.0,M,15.2,M,,*44
$GPRMC,115605.000,A,2459.6400,N,12127.2697,E,1.10,77.67,191017,,,A*53
$GPGGA,115649.306,2459.6252,N,12127.2727,E,1,4,2.51,43.9,M,15.2,M,,*63
$GPRMC,115650.306,A,2459.6232,N,12127.2784,E,1.48,349.26,191017,,,A*64
$GPGGA,115736.298,2459.6122,N,12127.2844,E,1,5,2.38,-31.3,M,15.2,M,,*4E
$GPRMC,115737.298,A,2459.6140,N,12127.2842,E,2.77,297.45,191017,,,A*69
$GPGGA,115815.365,2459.6144,N,12127.2635,E,1,5,2.38,-145.7,M,15.2,M,,*7D
$GPRMC,115816.373,A,2459.6149,N,12127.2610,E,1.95,263.43,191017,,,A*63
$GPGGA,115857.367,2459.6250,N,12127.2557,E,1,5,3.08,-139.6,M,15.2,M,,*70
$GPRMC,115858.360,A,2459.6247,N,12127.2627,E,1.50,162.88,191017,,,A*6E
$GPGGA,115937.340,2459.6203,N,12127.2647,E,1,5,2.41,-193.7,M,15.2,M,,*7B
$GPRMC,115938.341,A,2459.6228,N,12127.2646,E,1.34,178.14,191017,,,A*68
$GPGGA,120031.000,2459.6104,N,12127.2708,E,1,4,3.32,159.5,M,15.2,M,,*56
$GPRMC,120032.000,A,2459.6091,N,12127.2720,E,0.12,307.52,191017,,,A*67
$GPGGA,120118.261,2459.6414,N,12127.2764,E,1,4,3.29,18.4,M,15.2,M,,*68
$GPRMC,120119.261,A,2459.6378,N,12127.2762,E,0.97,299.48,191017,,,A*68
$GPGGA,120225.000,2459.6247,N,12127.2733,E,1,5,1.75,19.4,M,15.2,M,,*69
$GPRMC,120226.000,A,2459.6219,N,12127.2759,E,2.01,349.99,191017,,,A*61
$GPGGA,120303.226,2459.6220,N,12127.2871,E,1,5,2.61,-54.9,M,15.2,M,,*4D
$GPRMC,120304.226,A,2459.6212,N,12127.2860,E,1.39,224.64,191017,,,A*68
$GPGGA,120347.220,2459.6199,N,12127.2743,E,1,5,2.49,-58.0,M,15.2,M,,*4B
$GPRMC,120348.220,A,2459.6197,N,12127.2746,E,0.53,282.14,191017,,,A*65
$GPGGA,120425.230,2459.6229,N,12127.2786,E,1,6,1.64,27.6,M,15.2,M,,*64
$GPRMC,120426.233,A,2459.6262,N,12127.2799,E,1.37,316.68,191017,,,A*67
$GPGGA,120507.280,2459.6191,N,12127.2868,E,1,6,1.63,-27.1,M,15.2,M,,*4C
$GPRMC,120508.222,A,2459.6138,N,12127.2772,E,0.73,120.88,191017,,,A*6B
$GPGGA,120557.215,2459.6273,N,12127.2682,E,1,4,1.95,35.3,M,15.2,M,,*67
$GPRMC,120558.215,A,2459.6253,N,12127.2698,E,0.37,280.44,191017,,,A*68
$GPGGA,120634.160,2459.6148,N,12127.2697,E,1,5,2.48,53.0,M,15.2,M,,*6E
$GPRMC,120635.238,A,2459.6149,N,12127.2697,E,1.86,215.83,191017,,,A*64
$GPGGA,120724.200,2459.6182,N,12127.2869,E,1,5,2.45,-53.0,M,15.2,M,,*42
$GPRMC,120725.200,A,2459.6194,N,12127.2896,E,0.25,280.56,191017,,,A*6C
$GPGGA,120806.201,2459.6180,N,12127.2805,E,1,6,1.59,-24.5,M,15.2,M,,*4C
$GPRMC,120807.212,A,2459.6174,N,12127.2799,E,0.22,243.47,191017,,,A*66
$GPGGA,120848.204,2459.6414,N,12127.2627,E,1,5,2.58,-19.9,M,15.2,M,,*46
$GPRMC,120849.202,A,2459.6429,N,12127.2633,E,0.44,161.97,191017,,,A*6F
$GPGGA,120932.178,2459.6175,N,12127.3030,E,1,4,2.84,21.1,M,15.2,M,,*6F
$GPRMC,120934.000,A,2459.6172,N,12127.3001,E,3.12,168.68,191017,,,A*60
$GPGGA,121035.000,2459.6225,N,12127.2998,E,1,5,2.62,5.4,M,15.2,M,,*58
$GPRMC,121036.000,A,2459.6199,N,12127.3009,E,0.08,122.07,191017,,,A*68
$GPGGA,121113.144,2459.6351,N,12127.2755,E,1,6,1.54,-11.8,M,15.2,M,,*40
$GPRMC,121115.000,A,2459.6401,N,12127.2752,E,1.36,330.47,191017,,,A*6D
$GPGGA,121152.137,2459.6549,N,12127.2620,E,1,5,1.57,87.7,M,15.2,M,,*60
$GPRMC,121153.137,A,2459.6548,N,12127.2629,E,2.37,150.34,191017,,,A*69
$GPGGA,121233.131,2459.6378,N,12127.2682,E,1,4,3.14,-27.6,M,15.2,M,,*4C
$GPRMC,121234.131,A,2459.6375,N,12127.2679,E,0.64,259.46,191017,,,A*6B
$GPGGA,121318.124,2459.6277,N,12127.2634,E,1,5,2.23,-14.3,M,15.2,M,,*42
$GPRMC,121320.000,A,2459.6264,N,12127.2644,E,0.27,177.46,191017,,,A*6B
$GPGGA,121405.116,2459.6110,N,12127.2740,E,1,6,1.51,24.9,M,15.2,M,,*69
$GPRMC,121406.116,A,2459.6078,N,12127.2751,E,0.34,135.50,191017,,,A*67
$GPGGA,121445.172,2459.6167,N,12127.2693,E,1,5,2.18,76.7,M,15.2,M,,*64
$GPRMC,121446.170,A,2459.6168,N,12127.2697,E,0.10,331.86,191017,,,A*63
$GPGGA,121526.149,2459.6252,N,12127.2815,E,1,6,1.49,17.1,M,15.2,M,,*68
$GPRMC,121527.135,A,2459.6311,N,12127.2786,E,0.42,101.16,191017,,,A*66
$GPGGA,121615.000,2459.6300,N,12127.2707,E,1,6,1.48,20.1,M,15.2,M,,*68
$GPRMC,121616.000,A,2459.6254,N,12127.2732,E,0.82,337.51,191017,,,A*67
$GPGGA,121651.099,2459.6109,N,12127.2630,E,1,4,3.14,10.2,M,15.2,M,,*6F
$GPRMC,121652.132,A,2459.6278,N,12127.2511,E,0.23,253.82,191017,,,A*6C
$GPGGA,121744.097,2459.6287,N,12127.2848,E,1,3,3.35,10.0,M,15.2,M,,*66
$GPRMC,121745.097,A,2459.6264,N,12127.2841,E,0.21,102.28,191017,,,A*65
$GPGGA,121825.082,2459.6302,N,12127.2874,E,1,5,1.61,10.3,M,15.2,M,,*6F
$GPRMC,121826.088,A,2459.6284,N,12127.2906,E,2.09,99.80,191017,,,A*54
$GPGGA,121951.002,2459.6950,N,12127.2954,E,1,5,2.02,-60.5,M,15.2,M,,*41
$GPRMC,121952.036,A,2459.6737,N,12127.2973,E,0.15,143.42,191017,,,A*6B
$GPGGA,122033.072,2459.6291,N,12127.2919,E,1,5,2.00,10.2,M,15.2,M,,*68
$GPRMC,122034.076,A,2459.6278,N,12127.2922,E,0.24,11.22,191017,,,A*5D
$GPGGA,122114.098,2459.6212,N,12127.2859,E,1,5,1.98,10.2,M,15.2,M,,*64
$GPRMC,122115.096,A,2459.6259,N,12127.2811,E,0.30,328.34,191017,,,A*68
$GPGGA,122151.054,2459.6356,N,12127.2937,E,1,5,1.96,22.9,M,15.2,M,,*69
$GPRMC,122152.052,A,2459.6290,N,12127.2928,E,0.22,153.61,191017,,,A*60
$GPGGA,122230.069,2459.6292,N,12127.2774,E,1,6,1.41,42.4,M,15.2,M,,*61
$GPRMC,122231.097,A,2459.6244,N,12127.2866,E,2.98,304.59,191017,,,A*65
$GPGGA,122320.000,2459.6180,N,12127.2775,E,1,4,2.06,5.6,M,15.2,M,,*5C
$GPRMC,122321.000,A,2459.6263,N,12127.2974,E,2.14,195.30,191017,,,A*6D
$GPGGA,122406.032,2459.6091,N,12127.2815,E,1,5,1.52,-29.8,M,15.2,M,,*48
$GPRMC,122407.032,A,2459.6121,N,12127.2818,E,1.36,154.67,191017,,,A*6D
$GPGGA,122441.008,2459.6187,N,12127.2775,E,1,4,2.02,9.4,M,15.2,M,,*59
$GPRMC,122442.000,A,2459.6220,N,12127.2777,E,0.81,140.63,191017,,,A*65
$GPGGA,122519.002,2459.6280,N,12127.2841,E,1,4,3.13,-7.9,M,15.2,M,,*7C
$GPRMC,122520.002,A,2459.6273,N,12127.2861,E,0.66,122.03,191017,,,A*67
$GPGGA,122558.996,2459.6147,N,12127.2979,E,1,4,3.14,39.8,M,15.2,M,,*69
$GPRMC,122559.996,A,2459.6185,N,12127.2903,E,1.69,40.88,191017,,,A*5A
$GPGGA,122640.989,2459.6477,N,12127.2727,E,1,5,1.49,46.3,M,15.2,M,,*66
$GPRMC,122642.000,A,2459.6505,N,12127.2704,E,1.03,354.99,191017,,,A*6A
$GPGGA,122734.000,2459.6002,N,12127.2913,E,1,5,1.48,-88.6,M,15.2,M,,*48
$GPRMC,122735.000,A,2459.5975,N,12127.2925,E,0.15,157.04,191017,,,A*6D
$GPGGA,122813.913,2459.6504,N,12127.2629,E,1,5,1.47,-19.9,M,15.2,M,,*44
$GPRMC,122814.912,A,2459.6506,N,12127.2615,E,1.99,159.20,191017,,,A*61
$GPGGA,122851.986,2459.6272,N,12127.2689,E,1,6,1.36,11.3,M,15.2,M,,*68
$GPRMC,122853.010,A,2459.6179,N,12127.2765,E,0.77,128.77,191017,,,A*66
$GPGGA,122929.984,2459.6339,N,12127.2514,E,1,5,1.79,95.6,M,15.2,M,,*6C
$GPRMC,122930.994,A,2459.6329,N,12127.2504,E,1.34,115.30,191017,,,A*6E
$GPGGA,123023.970,2459.6294,N,12127.2682,E,1,4,3.27,26.4,M,15.2,M,,*6D
$GPRMC,123024.970,A,2459.6269,N,12127.2695,E,2.35,165.47,191017,,,A*62
$GPGGA,123110.960,2459.6318,N,12127.2740,E,1,5,1.76,-56.7,M,15.2,M,,*49
$GPRMC,123112.000,A,2459.6278,N,12127.2797,E,1.05,153.02,191017,,,A*6F
$GPGGA,123149.937,2459.6280,N,12127.2725,E,1,5,1.43,3.2,M,15.2,M,,*5A
$GPRMC,123151.000,A,2459.6268,N,12127.2731,E,1.89,267.31,191017,,,A*65
$GPGGA,123226.000,2459.6359,N,12127.2661,E,1,5,1.74,42.2,M,15.2,M,,*68
$GPRMC,123227.000,A,2459.6341,N,12127.2669,E,0.92,84.17,191017,,,A*51
$GPGGA,123258.924,2459.6294,N,12127.2794,E,1,5,1.73,50.1,M,15.2,M,,*62
$GPRMC,123259.924,A,2459.6321,N,12127.2768,E,0.31,27.84,191017,,,A*5B
$GPGGA,123332.918,2459.6263,N,12127.2710,E,1,5,1.72,48.0,M,15.2,M,,*6D
$GPRMC,123333.918,A,2459.6265,N,12127.2699,E,1.02,228.98,191017,,,A*66
$GPGGA,123408.934,2459.6152,N,12127.2870,E,1,5,1.71,47.7,M,15.2,M,,*6E
$GPRMC,123409.963,A,2459.6262,N,12127.2701,E,0.81,226.11,191017,,,A*66
$GPGGA,123444.896,2459.6234,N,12127.2725,E,1,4,3.34,47.7,M,15.2,M,,*61
$GPRMC,123445.912,A,2459.6286,N,12127.2668,E,0.39,276.24,191017,,,A*6C
$GPGGA,123521.887,2459.6289,N,12127.2639,E,1,4,1.72,47.7,M,15.2,M,,*69
$GPRMC,123522.884,A,2459.6295,N,12127.2624,E,0.45,270.40,191017,,,A*67
$GPGGA,123559.833,2459.6186,N,12127.2622,E,1,4,1.60,47.7,M,15.2,M,,*6C
$GPRMC,123600.864,A,2459.6232,N,12127.2631,E,1.30,321.75,191017,,,A*63
$GPGGA,123635.940,2459.6193,N,12127.2830,E,1,4,3.37,47.7,M,15.2,M,,*69
$GPRMC,123636.942,A,2459.6190,N,12127.2831,E,1.15,32.43,191017,,,A*55
$GPGGA,123721.000,2459.6320,N,12127.2967,E,1,6,1.30,38.0,M,15.2,M,,*61
$GPRMC,123722.000,A,2459.6327,N,12127.2939,E,0.37,15.23,191017,,,A*5B
$GPGGA,123755.874,2459.6188,N,12127.2746,E,1,4,3.31,27.4,M,15.2,M,,*6F
$GPRMC,123757.000,A,2459.6218,N,12127.2789,E,0.64,51.85,191017,,,A*5B
$GPGGA,123832.869,2459.6267,N,12127.2642,E,1,5,1.36,27.3,M,15.2,M,,*69
$GPRMC,123834.000,A,2459.6278,N,12127.2648,E,0.81,214.85,191017,,,A*63
$GPGGA,123917.000,2459.6276,N,12127.2732,E,1,5,1.64,26.1,M,15.2,M,,*6A
$GPRMC,123918.000,A,2459.6283,N,12127.2747,E,0.85,65.72,191017,,,A*5E
$GPGGA,123955.855,2459.6243,N,12127.2881,E,1,4,1.70,26.4,M,15.2,M,,*64
$GPRMC,123956.855,A,2459.6250,N,12127.2855,E,0.63,14.81,191017,,,A*5C
$GPGGA,124032.848,2459.6214,N,12127.2648,E,1,4,1.66,27.1,M,15.2,M,,*6D
$GPRMC,124033.848,A,2459.6188,N,12127.2642,E,1.76,220.34,191017,,,A*6D
$GPGGA,124108.842,2459.6295,N,12127.2656,E,1,4,3.45,28.2,M,15.2,M,,*66
$GPRMC,124109.842,A,2459.6282,N,12127.2658,E,2.59,125.33,191017,,,A*62
$GPGGA,124147.847,2459.6231,N,12127.2768,E,1,5,1.61,27.4,M,15.2,M,,*66
$GPRMC,124148.854,A,2459.6221,N,12127.2768,E,0.35,6.02,191017,,,A*61
$GPGGA,124229.868,2459.6373,N,12127.2801,E,1,5,1.34,27.0,M,15.2,M,,*63
$GPRMC,124230.867,A,2459.6379,N,12127.2809,E,3.59,44.42,191017,,,A*52
$GPGGA,124316.838,2459.6478,N,12127.2714,E,1,4,1.81,32.1,M,15.2,M,,*66
$GPRMC,124317.838,A,2459.6480,N,12127.2712,E,1.29,320.23,191017,,,A*6B
$GPGGA,124401.831,2459.6279,N,12127.2758,E,1,5,1.34,22.2,M,15.2,M,,*6C
$GPRMC,124403.000,A,2459.6332,N,12127.2657,E,0.87,84.27,191017,,,A*58
$GPGGA,124445.000,2459.6204,N,12127.2710,E,1,5,1.34,-43.3,M,15.2,M,,*4B
$GPRMC,124446.000,A,2459.6262,N,12127.2718,E,0.84,286.21,191017,,,A*62
$GPGGA,124523.800,2459.6403,N,12127.2749,E,1,6,1.27,3.6,M,15.2,M,,*52
$GPRMC,124525.000,A,2459.6400,N,12127.2760,E,0.55,168.43,191017,,,A*60
$GPGGA,124600.793,2459.6324,N,12127.2853,E,1,4,1.77,-17.6,M,15.2,M,,*4C
$GPRMC,124601.793,A,2459.6397,N,12127.2758,E,1.06,323.87,191017,,,A*68
$GPGGA,124636.787,2459.6232,N,12127.2760,E,1,5,1.57,-14.3,M,15.2,M,,*40
$GPRMC,124637.787,A,2459.6264,N,12127.2728,E,1.74,120.70,191017,,,A*6E
$GPGGA,124714.813,2459.6347,N,12127.2719,E,1,5,1.32,39.4,M,15.2,M,,*68
$GPRMC,124715.817,A,2459.6344,N,12127.2728,E,0.74,16.14,191017,,,A*5D
$GPGGA,124750.787,2459.6240,N,12127.2847,E,1,6,1.26,-55.8,M,15.2,M,,*45
$GPRMC,124751.806,A,2459.6274,N,12127.2817,E,1.19,88.29,191017,,,A*5F
$GPGGA,124825.765,2459.6308,N,12127.2737,E,1,5,1.55,21.6,M,15.2,M,,*66
$GPRMC,124826.776,A,2459.6334,N,12127.2715,E,0.55,327.17,191017,,,A*62
$GPGGA,124903.770,2459.6321,N,12127.2733,E,1,5,1.55,-5.9,M,15.2,M,,*7C
$GPRMC,124904.770,A,2459.6320,N,12127.2737,E,0.71,61.67,191017,,,A*50
$GPGGA,124945.774,2459.6342,N,12127.2826,E,1,5,1.54,3.1,M,15.2,M,,*56
$GPRMC,124946.765,A,2459.6423,N,12127.2875,E,0.49,235.83,191017,,,A*6D
$GPGGA,125023.761,2459.6363,N,12127.2750,E,1,5,1.54,-0.2,M,15.2,M,,*7A
$GPRMC,125024.761,A,2459.6341,N,12127.2739,E,1.29,62.66,191017,,,A*5D
$GPGGA,125101.767,2459.6271,N,12127.2778,E,1,5,1.53,-30.6,M,15.2,M,,*45
$GPRMC,125102.767,A,2459.6274,N,12127.2760,E,1.85,71.19,191017,,,A*59
$GPGGA,125140.770,2459.6358,N,12127.2629,E,1,4,1.69,8.4,M,15.2,M,,*55
$GPRMC,125141.776,A,2459.6346,N,12127.2645,E,0.76,346.24,191017,,,A*6C
$GPGGA,125219.737,2459.6389,N,12127.2750,E,1,5,1.52,19.3,M,15.2,M,,*64
$GPRMC,125220.740,A,2459.6349,N,12127.2715,E,1.37,20.24,191017,,,A*51
$GPGGA,125256.772,2459.6309,N,12127.2650,E,1,4,1.68,17.0,M,15.2,M,,*62
$GPRMC,125257.779,A,2459.6304,N,12127.2665,E,1.00,54.61,191017,,,A*52
$GPGGA,125336.753,2459.6305,N,12127.2815,E,1,5,1.52,-20.8,M,15.2,M,,*4C
$GPRMC,125337.733,A,2459.6305,N,12127.2765,E,1.76,44.66,191017,,,A*5C
$GPGGA,125431.000,2459.6336,N,12127.2792,E,1,6,1.28,13.8,M,15.2,M,,*6E
$GPRMC,125432.000,A,2459.6341,N,12127.2796,E,1.04,70.97,191017,,,A*59
$GPGGA,125505.701,2459.6334,N,12127.2757,E,1,4,2.06,7.9,M,15.2,M,,*5C
$GPRMC,125506.701,A,2459.6342,N,12127.2755,E,0.68,160.95,191017,,,A*6C
$GPGGA,125543.682,2459.6390,N,12127.2923,E,1,4,2.06,8.8,M,15.2,M,,*59
$GPRMC,125544.693,A,2459.6365,N,12127.2815,E,1.05,14.33,191017,,,A*5A
$GPGGA,125620.753,2459.6179,N,12127.2820,E,1,5,1.97,8.9,M,15.2,M,,*5E
$GPRMC,125621.725,A,2459.6283,N,12127.2769,E,0.35,133.52,191017,,,A*6A
$GPGGA,125702.733,2459.6232,N,12127.2806,E,1,5,1.34,8.5,M,15.2,M,,*54
$GPRMC,125703.711,A,2459.6309,N,12127.2777,E,0.22,82.49,191017,,,A*57
$GPGGA,125742.647,2459.6495,N,12127.2630,E,1,5,1.45,8.9,M,15.2,M,,*58
$GPRMC,125743.677,A,2459.6392,N,12127.2673,E,0.80,265.02,191017,,,A*69
$GPGGA,125821.639,2459.6481,N,12127.2615,E,1,4,1.78,8.8,M,15.2,M,,*57
$GPRMC,125822.639,A,2459.6487,N,12127.2639,E,0.40,2.72,191017,,,A*6E
$GPGGA,125859.698,2459.6277,N,12127.2784,E,1,4,1.78,8.8,M,15.2,M,,*55
$GPRMC,125900.682,A,2459.6331,N,12127.2766,E,2.46,95.23,191017,,,A*50
$GPGGA,125935.651,2459.6357,N,12127.2693,E,1,4,1.78,8.8,M,15.2,M,,*5F
$GPRMC,125936.651,A,2459.6374,N,12127.2701,E,0.50,262.04,191017,,,A*61
$GPGGA,130014.634,2459.6408,N,12127.2728,E,1,5,1.52,39.8,M,15.2,M,,*65
$GPRMC,130015.641,A,2459.6386,N,12127.2756,E,1.58,108.97,191017,,,A*6F
$GPGGA,130052.662,2459.6304,N,12127.2659,E,1,5,1.52,32.7,M,15.2,M,,*6C
$GPRMC,130053.665,A,2459.6295,N,12127.2676,E,0.83,109.37,191017,,,A*67
$GPGGA,130131.684,2459.6251,N,12127.2769,E,1,5,1.52,-6.1,M,15.2,M,,*7F
$GPRMC,130132.676,A,2459.6285,N,12127.2768,E,1.85,92.80,191017,,,A*54
$GPGGA,130208.614,2459.6372,N,12127.2657,E,1,6,1.41,46.0,M,15.2,M,,*6A
$GPRMC,130209.618,A,2459.6347,N,12127.2638,E,1.79,81.58,191017,,,A*58
$GPGGA,130244.664,2459.6298,N,12127.2806,E,1,5,1.99,14.9,M,15.2,M,,*62
$GPRMC,130245.653,A,2459.6318,N,12127.2834,E,0.81,73.72,191017,,,A*54
$GPGGA,130327.597,2459.6169,N,12127.2397,E,1,6,1.41,208.9,M,15.2,M,,*5E
$GPRMC,130328.643,A,2459.6227,N,12127.2537,E,0.83,285.96,191017,,,A*6F
$GPGGA,130405.654,2459.6276,N,12127.2782,E,1,6,1.41,-49.7,M,15.2,M,,*4C
$GPRMC,130406.663,A,2459.6290,N,12127.2822,E,0.41,53.69,191017,,,A*54
$GPGGA,130444.703,2459.6430,N,12127.3073,E,1,5,1.47,-258.0,M,15.2,M,,*76
$GPRMC,130445.693,A,2459.6421,N,12127.3036,E,1.49,104.08,191017,,,A*61
$GPGGA,130523.550,2459.6228,N,12127.2476,E,1,5,1.47,190.6,M,15.2,M,,*51
$GPRMC,130524.560,A,2459.6236,N,12127.2511,E,0.80,284.86,191017,,,A*60
$GPGGA,130605.559,2459.6355,N,12127.2590,E,1,5,2.01,97.0,M,15.2,M,,*6C
$GPRMC,130606.577,A,2459.6296,N,12127.2606,E,0.37,197.05,191017,,,A*6C
$GPGGA,130645.634,2459.6299,N,12127.2917,E,1,6,1.41,-139.6,M,15.2,M,,*78
$GPRMC,130646.612,A,2459.6334,N,12127.2792,E,1.73,72.52,191017,,,A*54
$GPGGA,130725.573,2459.6440,N,12127.2877,E,1,5,1.52,-93.1,M,15.2,M,,*4D
$GPRMC,130726.584,A,2459.6422,N,12127.2873,E,0.82,116.05,191017,,,A*61
$GPGGA,130804.595,2459.6360,N,12127.2711,E,1,6,1.32,-9.1,M,15.2,M,,*75
$GPRMC,130805.594,A,2459.6369,N,12127.2741,E,0.09,152.28,191017,,,A*64
$GPGGA,130848.492,2459.6338,N,12127.2430,E,1,5,1.52,213.2,M,15.2,M,,*54
$GPRMC,130849.581,A,2459.6376,N,12127.2979,E,1.43,79.48,191017,,,A*52
$GPGGA,130927.596,2459.6341,N,12127.2629,E,1,6,1.41,-41.7,M,15.2,M,,*41
$GPRMC,130928.596,A,2459.6324,N,12127.2654,E,2.13,287.31,191017,,,A*6E
$GPGGA,131006.588,2459.6389,N,12127.2652,E,1,6,1.41,-52.5,M,15.2,M,,*4D
$GPRMC,131007.588,A,2459.6377,N,12127.2672,E,0.78,291.86,191017,,,A*62
$GPGGA,131047.585,2459.6370,N,12127.2799,E,1,6,1.41,-30.4,M,15.2,M,,*40
$GPRMC,131048.573,A,2459.6361,N,12127.2764,E,1.23,212.04,191017,,,A*62
$GPGGA,131130.579,2459.6427,N,12127.2872,E,1,5,1.48,-67.8,M,15.2,M,,*49
$GPRMC,131131.553,A,2459.6354,N,12127.2707,E,1.13,80.39,191017,,,A*58
$GPGGA,131213.546,2459.6280,N,12127.2664,E,1,5,1.46,83.7,M,15.2,M,,*63
$GPRMC,131215.000,A,2459.6323,N,12127.2678,E,0.11,241.65,191017,,,A*62
$GPGGA,131255.539,2459.6341,N,12127.2807,E,1,4,1.66,49.6,M,15.2,M,,*6A
$GPRMC,131257.000,A,2459.6300,N,12127.2782,E,2.66,75.75,191017,,,A*57
$GPGGA,131342.532,2459.6317,N,12127.2742,E,1,5,2.04,51.9,M,15.2,M,,*6B
$GPRMC,131343.532,A,2459.6312,N,12127.2763,E,1.56,48.51,191017,,,A*53
$GPGGA,131423.531,2459.6365,N,12127.2660,E,1,5,2.05,-27.8,M,15.2,M,,*40
$GPRMC,131424.549,A,2459.6296,N,12127.2627,E,2.44,83.40,191017,,,A*52
$GPGGA,131507.517,2459.6298,N,12127.2778,E,1,5,2.05,13.4,M,15.2,M,,*6E
$GPRMC,131509.000,A,2459.6297,N,12127.2785,E,3.01,240.08,191017,,,A*6D
$GPGGA,131549.510,2459.6143,N,12127.2461,E,1,5,1.52,206.7,M,15.2,M,,*59
$GPRMC,131550.510,A,2459.6171,N,12127.2458,E,1.70,81.37,191017,,,A*5A
$GPGGA,131634.503,2459.6395,N,12127.2826,E,1,5,2.06,-5.6,M,15.2,M,,*7B
$GPRMC,131635.503,A,2459.6403,N,12127.2817,E,3.26,66.94,191017,,,A*5E
$GPGGA,131710.479,2459.6253,N,12127.2643,E,1,4,2.09,73.2,M,15.2,M,,*60
$GPRMC,131711.479,A,2459.6301,N,12127.2535,E,0.99,161.93,191017,,,A*6B
$GPGGA,131758.000,2459.6370,N,12127.2894,E,1,5,2.06,-39.2,M,15.2,M,,*4F
$GPRMC,131759.000,A,2459.6369,N,12127.2883,E,0.35,266.51,191017,,,A*6F
$GPGGA,131844.481,2459.6321,N,12127.2858,E,1,6,1.43,14.1,M,15.2,M,,*64
$GPRMC,131846.000,A,2459.6316,N,12127.2818,E,0.81,304.49,191017,,,A*67
$GPGGA,131935.457,2459.6365,N,12127.2395,E,1,5,1.47,19.9,M,15.2,M,,*60
$GPRMC,131936.457,A,2459.6350,N,12127.2398,E,0.68,39.95,191017,,,A*5D
$GPGGA,132044.000,2459.6255,N,12127.3059,E,1,3,7.24,15.1,M,15.2,M,,*6B
$GPRMC,132045.000,A,2459.6267,N,12127.2639,E,0.34,62.11,191017,,,A*55
$GPGGA,132127.424,2459.6517,N,12127.2743,E,1,6,1.44,107.6,M,15.2,M,,*51
$GPRMC,132128.454,A,2459.6443,N,12127.2877,E,3.82,155.93,191017,,,A*6F
$GPGGA,132206.447,2459.5412,N,12127.3488,E,1,4,1.69,56.0,M,15.2,M,,*68
$GPRMC,132207.430,A,2459.5384,N,12127.3439,E,1.66,186.31,191017,,,A*65
$GPGGA,132242.454,2459.4975,N,12127.3492,E,1,5,1.54,-21.4,M,15.2,M,,*4A
$GPRMC,132243.454,A,2459.4982,N,12127.3509,E,0.66,48.16,191017,,,A*5F
$GPGGA,132318.447,2459.4431,N,12127.3998,E,1,6,1.44,-8.1,M,15.2,M,,*70
$GPRMC,132319.443,A,2459.4390,N,12127.3986,E,13.98,174.72,191017,,,A*5A
$GPGGA,132401.437,2459.3074,N,12127.4244,E,1,6,1.44,40.8,M,15.2,M,,*6F
$GPRMC,132402.436,A,2459.3066,N,12127.4230,E,3.64,254.76,191017,,,A*6E
$GPGGA,132456.420,2459.3248,N,12127.3384,E,1,4,4.83,-97.3,M,15.2,M,,*4C
$GPRMC,132458.000,A,2459.3227,N,12127.3403,E,0.19,309.69,191017,,,A*68
$GPGGA,132546.378,2459.2909,N,12127.3466,E,1,4,1.69,106.4,M,15.2,M,,*50
$GPRMC,132547.395,A,2459.2889,N,12127.3454,E,0.48,290.95,191017,,,A*63
$GPGGA,132625.390,2459.1856,N,12127.2274,E,1,6,1.45,64.2,M,15.2,M,,*63
$GPRMC,132626.391,A,2459.1834,N,12127.2258,E,5.40,216.24,191017,,,A*64
$GPGGA,132700.387,2459.1256,N,12127.1664,E,1,5,1.49,46.7,M,15.2,M,,*65
$GPRMC,132701.393,A,2459.1277,N,12127.1735,E,0.52,318.92,191017,,,A*66
$GPGGA,132746.364,2459.1249,N,12127.1339,E,1,5,2.12,87.7,M,15.2,M,,*69
$GPRMC,132747.349,A,2459.1278,N,12127.1321,E,8.63,248.56,191017,,,A*6B
$GPGGA,132826.367,2459.0798,N,12127.0903,E,1,5,1.55,95.2,M,15.2,M,,*6F
$GPRMC,132827.381,A,2459.0792,N,12127.0892,E,2.85,256.04,191017,,,A*6E
$GPGGA,132909.363,2458.9321,N,12126.9747,E,1,4,1.64,52.4,M,15.2,M,,*61
$GPRMC,132910.366,A,2458.9082,N,12126.9713,E,16.63,189.52,191017,,,A*5D
$GPGGA,132947.379,2458.8503,N,12126.9073,E,1,5,1.55,40.6,M,15.2,M,,*65
$GPRMC,132948.374,A,2458.8520,N,12126.9096,E,0.81,36.35,191017,,,A*5A
$GPGGA,133023.373,2458.8141,N,12126.9565,E,1,6,1.46,-17.7,M,15.2,M,,*4A
$GPRMC,133024.376,A,2458.8120,N,12126.9525,E,7.70,174.50,191017,,,A*6E
$GPGGA,133100.356,2458.6978,N,12126.8091,E,1,6,1.46,61.9,M,15.2,M,,*6C
$GPRMC,133101.347,A,2458.7036,N,12126.8127,E,4.15,239.45,191017,,,A*6A
$GPGGA,133137.379,2458.7081,N,12126.8249,E,1,5,1.56,-67.8,M,15.2,M,,*44
$GPRMC,133138.343,A,2458.7043,N,12126.8150,E,0.30,336.57,191017,,,A*68
$GPGGA,133213.348,2458.6276,N,12126.7881,E,1,6,1.47,22.0,M,15.2,M,,*6E
$GPRMC,133214.349,A,2458.6274,N,12126.7856,E,13.87,239.65,191017,,,A*59
$GPGGA,133302.337,2458.5421,N,12126.7390,E,1,6,3.60,50.5,M,15.2,M,,*6C
$GPRMC,133304.000,A,2458.5429,N,12126.7356,E,8.88,118.17,191017,,,A*61
$GPGGA,133344.297,2458.5055,N,12126.5447,E,1,5,2.16,2.0,M,15.2,M,,*5C
$GPRMC,133345.325,A,2458.5014,N,12126.5495,E,3.82,230.82,191017,,,A*64
$GPGGA,133420.327,2458.3631,N,12126.5990,E,1,5,2.16,3.9,M,15.2,M,,*5E
$GPRMC,133421.329,A,2458.3586,N,12126.6013,E,15.24,151.92,191017,,,A*52
$GPGGA,133525.316,2458.2339,N,12126.5617,E,1,4,1.69,-70.8,M,15.2,M,,*46
$GPRMC,133526.316,A,2458.2391,N,12126.5490,E,0.25,327.13,191017,,,A*6A
$GPGGA,133600.312,2458.2290,N,12126.5550,E,1,5,1.57,48.8,M,15.2,M,,*6E
$GPRMC,133601.316,A,2458.2309,N,12126.5539,E,1.53,50.79,191017,,,A*50
$GPGGA,133647.299,2458.2249,N,12126.5067,E,1,5,2.18,105.4,M,15.2,M,,*56
$GPRMC,133648.299,A,2458.2204,N,12126.5068,E,4.02,50.75,191017,,,A*5B
