$GPGGA,102027.000,2500.4324,N,12129.1141,E,1,3,3.08,135.0,M,15.2,M,,*59
$GPRMC,102027.000,A,2500.4324,N,12129.1141,E,0.30,15.75,260917,,,A*5C
$GPGGA,102233.000,2500.4775,N,12129.0455,E,1,4,2.89,61.1,M,15.2,M,,*61
$GPRMC,102233.000,A,2500.4775,N,12129.0455,E,2.52,291.40,260917,,,A*64
$GPGGA,102917.000,2500.6826,N,12128.7655,E,1,5,2.38,34.9,M,15.2,M,,*60
$GPRMC,102917.000,A,2500.6826,N,12128.7655,E,1.53,201.10,260917,,,A*68
$GPGGA,103003.273,2500.6697,N,12128.7501,E,1,4,2.66,3.0,M,15.2,M,,*5A
$GPRMC,103003.273,A,2500.6697,N,12128.7501,E,1.51,205.52,260917,,,A*65
$GPGGA,103102.265,2500.6889,N,12128.7334,E,1,5,1.55,24.0,M,15.2,M,,*6B
$GPRMC,103102.265,A,2500.6889,N,12128.7334,E,17.02,332.02,260917,,,A*52
$GPGGA,103212.256,2500.9713,N,12128.3972,E,1,5,1.71,30.1,M,15.1,M,,*67
$GPRMC,103212.256,A,2500.9713,N,12128.3972,E,19.48,337.60,260917,,,A*5E
$GPGGA,103256.244,2501.1282,N,12128.2865,E,1,7,1.14,7.5,M,15.1,M,,*57
$GPRMC,103256.244,A,2501.1282,N,12128.2865,E,0.49,227.64,260917,,,A*62
$GPGGA,103339.237,2501.0840,N,12128.2049,E,1,6,1.46,28.6,M,15.1,M,,*60
$GPRMC,103339.237,A,2501.0840,N,12128.2049,E,5.13,222.95,260917,,,A*6C
$GPGGA,103426.229,2500.9880,N,12128.0700,E,1,6,1.46,9.1,M,15.1,M,,*5E
$GPRMC,103426.229,A,2500.9880,N,12128.0700,E,22.84,231.48,260917,,,A*5F
$GPGGA,103508.222,2500.9566,N,12128.0153,E,1,5,1.97,23.0,M,15.1,M,,*6B
$GPRMC,103508.222,A,2500.9566,N,12128.0153,E,0.44,212.19,260917,,,A*65
$GPGGA,103551.215,2500.9427,N,12128.0132,E,1,5,1.67,17.9,M,15.1,M,,*61
$GPRMC,103551.215,A,2500.9427,N,12128.0132,E,0.64,208.49,260917,,,A*62
$GPGGA,103633.208,2500.9445,N,12128.0080,E,1,6,1.30,25.6,M,15.1,M,,*69
$GPRMC,103633.208,A,2500.9445,N,12128.0080,E,12.94,212.74,260917,,,A*5C
$GPGGA,103717.201,2500.7482,N,12127.7623,E,1,5,1.82,68.7,M,15.1,M,,*67
$GPRMC,103717.201,A,2500.7482,N,12127.7623,E,15.89,221.74,260917,,,A*5B
$GPGGA,103802.178,2500.5178,N,12127.5384,E,1,7,1.16,75.6,M,15.1,M,,*6B
$GPRMC,103802.178,A,2500.5178,N,12127.5384,E,24.56,214.48,260917,,,A*5C
$GPGGA,103845.186,2500.3791,N,12127.4410,E,1,6,1.31,15.3,M,15.1,M,,*62
$GPRMC,103845.186,A,2500.3791,N,12127.4410,E,18.10,222.57,260917,,,A*54
$GPGGA,103926.179,2500.2967,N,12127.3475,E,1,6,1.31,41.4,M,15.1,M,,*62
$GPRMC,103926.179,A,2500.2967,N,12127.3475,E,3.10,220.27,260917,,,A*6D
$GPGGA,104011.000,2500.2904,N,12127.3446,E,1,5,2.07,13.7,M,15.1,M,,*63
$GPRMC,104011.000,A,2500.2904,N,12127.3446,E,1.06,205.46,260917,,,A*68
$GPGGA,104056.149,2500.2582,N,12127.1669,E,1,6,1.44,10.7,M,15.1,M,,*67
$GPRMC,104056.149,A,2500.2582,N,12127.1669,E,27.01,353.24,260917,,,A*5D
$GPGGA,104157.157,2500.3079,N,12127.1076,E,1,5,1.46,-30.1,M,15.1,M,,*48
$GPRMC,104157.157,A,2500.3079,N,12127.1076,E,31.18,177.65,260917,,,A*54
$GPGGA,104238.147,2500.0682,N,12127.1040,E,1,5,1.88,19.4,M,15.1,M,,*66
$GPRMC,104238.147,A,2500.0682,N,12127.1040,E,20.84,188.99,260917,,,A*5D
$GPGGA,104320.141,2459.7986,N,12126.8780,E,1,7,1.17,21.9,M,15.1,M,,*68
$GPRMC,104320.141,A,2459.7986,N,12126.8780,E,48.17,216.74,260917,,,A*52
$GPGGA,104404.134,2459.7185,N,12126.7783,E,1,5,1.42,7.7,M,15.1,M,,*54
$GPRMC,104404.134,A,2459.7185,N,12126.7783,E,10.40,250.18,260917,,,A*51
$GPGGA,104445.127,2459.6885,N,12126.5963,E,1,6,1.71,4.3,M,15.1,M,,*5D
$GPRMC,104445.127,A,2459.6885,N,12126.5963,E,27.24,277.95,260917,,,A*5A
$GPGGA,104526.120,2459.7291,N,12126.2174,E,1,6,1.42,19.8,M,15.1,M,,*6E
$GPRMC,104526.120,A,2459.7291,N,12126.2174,E,34.88,277.03,260917,,,A*55
$GPGGA,104614.113,2459.6951,N,12125.9254,E,1,5,2.51,7.9,M,15.1,M,,*5F
$GPRMC,104614.113,A,2459.6951,N,12125.9254,E,18.73,192.44,260917,,,A*59
$GPGGA,104714.105,2459.6176,N,12125.9344,E,1,5,2.22,84.4,M,15.1,M,,*66
$GPRMC,104714.105,A,2459.6176,N,12125.9344,E,0.89,334.02,260917,,,A*62
$GPGGA,104756.096,2459.4904,N,12125.8897,E,1,6,1.72,14.5,M,15.1,M,,*6D
$GPRMC,104756.096,A,2459.4904,N,12125.8897,E,18.55,201.98,260917,,,A*58
$GPGGA,104857.089,2459.1669,N,12125.6756,E,1,5,2.18,24.3,M,15.1,M,,*69
$GPRMC,104857.089,A,2459.1669,N,12125.6756,E,5.77,246.05,260917,,,A*6E
$GPGGA,104942.000,2459.1423,N,12125.6092,E,1,4,2.36,16.4,M,15.1,M,,*65
$GPRMC,104942.000,A,2459.1423,N,12125.6092,E,7.77,241.69,260917,,,A*66
$GPGGA,105056.000,2459.1187,N,12125.5936,E,1,4,2.33,2.1,M,15.1,M,,*52
$GPRMC,105056.000,A,2459.1187,N,12125.5936,E,0.79,24.07,260917,,,A*54
$GPGGA,105206.000,2459.1064,N,12125.5993,E,1,4,2.37,-38.2,M,15.1,M,,*45
$GPRMC,105206.000,A,2459.1064,N,12125.5993,E,4.07,156.05,260917,,,A*6B
$GPGGA,105255.032,2459.1258,N,12125.5937,E,1,4,2.36,0.1,M,15.1,M,,*55
$GPRMC,105255.032,A,2459.1258,N,12125.5937,E,0.69,268.24,260917,,,A*6E
$GPGGA,105342.000,2459.1217,N,12125.5977,E,1,5,1.76,11.3,M,15.1,M,,*68
$GPRMC,105342.000,A,2459.1217,N,12125.5977,E,0.74,275.68,260917,,,A*6F
$GPGGA,105429.000,2459.1224,N,12125.5913,E,1,5,1.75,-3.7,M,15.1,M,,*79
$GPRMC,105429.000,A,2459.1224,N,12125.5913,E,1.62,183.65,260917,,,A*66
$GPGGA,105516.000,2459.1242,N,12125.5930,E,1,4,2.34,-3.8,M,15.1,M,,*7D
$GPRMC,105516.000,A,2459.1242,N,12125.5930,E,1.09,201.63,260917,,,A*68
$GPGGA,105609.001,2459.1182,N,12125.5896,E,1,4,2.33,-17.9,M,15.1,M,,*40
$GPRMC,105609.001,A,2459.1182,N,12125.5896,E,0.79,164.56,260917,,,A*66
$GPGGA,105714.000,2459.1192,N,12125.5818,E,1,4,2.31,-48.5,M,15.1,M,,*4F
$GPRMC,105714.000,A,2459.1192,N,12125.5818,E,3.87,160.16,260917,,,A*6F
$GPGGA,105802.000,2459.1245,N,12125.5941,E,1,4,2.30,18.6,M,15.1,M,,*69
$GPRMC,105802.000,A,2459.1245,N,12125.5941,E,4.40,155.81,260917,,,A*67
$GPGGA,105930.000,2459.1110,N,12125.6034,E,1,4,2.34,-29.1,M,15.1,M,,*4E
$GPRMC,105930.000,A,2459.1110,N,12125.6034,E,2.33,156.26,260917,,,A*60
$GPGGA,110119.000,2459.1246,N,12125.5896,E,1,4,2.26,-3.7,M,15.1,M,,*77
$GPRMC,110119.000,A,2459.1246,N,12125.5896,E,1.95,154.62,260917,,,A*69
$GPGGA,110211.000,2459.1334,N,12125.5918,E,1,4,2.25,3.5,M,15.1,M,,*53
$GPRMC,110211.000,A,2459.1334,N,12125.5918,E,0.56,347.80,260917,,,A*63
$GPGGA,110310.000,2459.1283,N,12125.5914,E,1,4,2.23,3.1,M,15.1,M,,*50
$GPRMC,110310.000,A,2459.1283,N,12125.5914,E,1.79,156.15,260917,,,A*60
$GPGGA,110350.924,2459.1254,N,12125.5895,E,1,4,2.22,-0.9,M,15.1,M,,*7E
$GPRMC,110350.924,A,2459.1254,N,12125.5895,E,2.36,127.17,260917,,,A*65
$GPGGA,110445.000,2459.1180,N,12125.5949,E,1,5,1.67,-6.4,M,15.1,M,,*70
$GPRMC,110445.000,A,2459.1180,N,12125.5949,E,0.71,265.29,260917,,,A*6A
$GPGGA,110525.908,2459.1153,N,12125.5916,E,1,4,2.04,66.9,M,15.1,M,,*63
$GPRMC,110525.908,A,2459.1153,N,12125.5916,E,0.48,22.68,260917,,,A*56
$GPGGA,110613.918,2459.1246,N,12125.5914,E,1,5,1.66,2.1,M,15.1,M,,*5D
$GPRMC,110613.918,A,2459.1246,N,12125.5914,E,0.29,75.02,260917,,,A*5D
$GPGGA,110656.910,2459.1227,N,12125.5904,E,1,4,2.44,-4.4,M,15.1,M,,*7E
$GPRMC,110656.910,A,2459.1227,N,12125.5904,E,1.74,306.78,260917,,,A*61
$GPGGA,110806.000,2459.1263,N,12125.5932,E,1,4,2.15,-7.9,M,15.1,M,,*72
$GPRMC,110806.000,A,2459.1263,N,12125.5932,E,0.50,233.56,260917,,,A*6B
$GPGGA,110852.000,2459.1196,N,12125.6043,E,1,4,2.47,-10.2,M,15.1,M,,*4C
$GPRMC,110852.000,A,2459.1196,N,12125.6043,E,1.25,289.37,260917,,,A*6A
$GPGGA,110942.868,2459.1245,N,12125.5852,E,1,5,1.63,-15.4,M,15.1,M,,*4B
$GPRMC,110942.868,A,2459.1245,N,12125.5852,E,1.34,199.82,260917,,,A*66
$GPGGA,111026.876,2459.1191,N,12125.5984,E,1,4,2.12,7.2,M,15.1,M,,*52
$GPRMC,111026.876,A,2459.1191,N,12125.5984,E,3.77,143.53,260917,,,A*6D
$GPGGA,111131.869,2459.1316,N,12125.5930,E,1,4,2.10,-10.1,M,15.1,M,,*43
$GPRMC,111131.869,A,2459.1316,N,12125.5930,E,1.92,134.90,260917,,,A*60
$GPGGA,111250.858,2459.1297,N,12125.5953,E,1,5,1.61,-16.1,M,15.1,M,,*4A
$GPRMC,111250.858,A,2459.1297,N,12125.5953,E,0.22,102.47,260917,,,A*6E
$GPGGA,111343.845,2459.1279,N,12125.5815,E,1,4,2.06,-32.3,M,15.1,M,,*41
$GPRMC,111343.845,A,2459.1279,N,12125.5815,E,0.61,148.85,260917,,,A*65
$GPGGA,111538.837,2459.1323,N,12125.5934,E,1,6,1.29,3.4,M,15.1,M,,*56
$GPRMC,111538.837,A,2459.1323,N,12125.5934,E,1.27,18.37,260917,,,A*58
$GPGGA,111621.818,2459.1269,N,12125.5897,E,1,5,1.58,9.4,M,15.1,M,,*58
$GPRMC,111621.818,A,2459.1269,N,12125.5897,E,0.84,1.23,260917,,,A*6C
$GPGGA,111701.811,2459.1236,N,12125.5997,E,1,5,1.58,-4.6,M,15.1,M,,*7B
$GPRMC,111701.811,A,2459.1236,N,12125.5997,E,0.69,173.53,260917,,,A*6D
$GPGGA,111743.805,2459.1292,N,12125.5940,E,1,5,1.57,5.8,M,15.1,M,,*51
$GPRMC,111743.805,A,2459.1292,N,12125.5940,E,1.17,11.27,260917,,,A*54
$GPGGA,111832.798,2459.1278,N,12125.5890,E,1,4,1.83,9.9,M,15.1,M,,*5E
$GPRMC,111832.798,A,2459.1278,N,12125.5890,E,0.90,44.70,260917,,,A*52
$GPGGA,112022.000,2459.1255,N,12125.5904,E,1,4,1.81,22.8,M,15.1,M,,*6B
$GPRMC,112022.000,A,2459.1255,N,12125.5904,E,0.51,168.88,260917,,,A*68
$GPGGA,112101.772,2459.1336,N,12125.5893,E,1,4,1.80,-19.3,M,15.1,M,,*4D
$GPRMC,112101.772,A,2459.1336,N,12125.5893,E,1.25,335.59,260917,,,A*65
$GPGGA,112143.766,2459.1240,N,12125.5917,E,1,4,1.79,40.4,M,15.1,M,,*63
$GPRMC,112143.766,A,2459.1240,N,12125.5917,E,0.53,205.04,260917,,,A*61
$GPGGA,112232.759,2459.1120,N,12125.5803,E,1,4,1.78,109.6,M,15.1,M,,*54
$GPRMC,112232.759,A,2459.1120,N,12125.5803,E,0.97,211.81,260917,,,A*69
$GPGGA,112313.751,2459.1296,N,12125.5900,E,1,4,1.92,27.0,M,15.1,M,,*6D
$GPRMC,112313.751,A,2459.1296,N,12125.5900,E,0.90,79.93,260917,,,A*57
$GPGGA,112356.745,2459.1289,N,12125.5893,E,1,4,1.91,15.0,M,15.1,M,,*6E
$GPRMC,112356.745,A,2459.1289,N,12125.5893,E,1.00,4.61,260917,,,A*69
$GPGGA,112437.738,2459.1291,N,12125.5917,E,1,5,1.53,12.3,M,15.1,M,,*6B
$GPRMC,112437.738,A,2459.1291,N,12125.5917,E,1.14,112.12,260917,,,A*60
$GPGGA,112519.731,2459.1259,N,12125.5931,E,1,5,1.52,19.7,M,15.1,M,,*61
$GPRMC,112519.731,A,2459.1259,N,12125.5931,E,0.28,355.00,260917,,,A*68
$GPGGA,112608.724,2459.1267,N,12125.5903,E,1,5,1.52,4.4,M,15.1,M,,*55
$GPRMC,112608.724,A,2459.1267,N,12125.5903,E,0.40,195.03,260917,,,A*60
$GPGGA,112657.716,2459.1249,N,12125.5889,E,1,4,2.64,20.3,M,15.1,M,,*67
$GPRMC,112657.716,A,2459.1249,N,12125.5889,E,0.72,318.52,260917,,,A*66
$GPGGA,112744.708,2459.1273,N,12125.5879,E,1,4,2.65,-0.6,M,15.1,M,,*76
$GPRMC,112744.708,A,2459.1273,N,12125.5879,E,2.01,329.68,260917,,,A*61
$GPGGA,112829.701,2459.1362,N,12125.5907,E,1,4,2.65,2.4,M,15.1,M,,*5F
$GPRMC,112829.701,A,2459.1362,N,12125.5907,E,0.70,314.04,260917,,,A*65
$GPGGA,112926.693,2459.1258,N,12125.5894,E,1,5,1.50,-17.1,M,15.1,M,,*40
$GPRMC,112926.693,A,2459.1258,N,12125.5894,E,0.81,296.87,260917,,,A*6C
$GPGGA,113238.000,2459.1503,N,12125.5965,E,1,4,1.68,-161.2,M,15.1,M,,*76
$GPRMC,113238.000,A,2459.1503,N,12125.5965,E,0.74,356.46,260917,,,A*69
$GPGGA,113422.653,2459.1265,N,12125.5941,E,1,4,2.66,45.3,M,15.1,M,,*6C
$GPRMC,113422.653,A,2459.1265,N,12125.5941,E,0.15,63.44,260917,,,A*55
$GPGGA,113508.636,2459.1343,N,12125.5881,E,1,4,2.66,-29.6,M,15.1,M,,*4C
$GPRMC,113508.636,A,2459.1343,N,12125.5881,E,2.04,336.08,260917,,,A*6E
$GPGGA,113636.629,2459.1328,N,12125.5900,E,1,4,2.65,-8.8,M,15.1,M,,*77
$GPRMC,113636.629,A,2459.1328,N,12125.5900,E,1.00,347.31,260917,,,A*60
$GPGGA,113810.000,2459.1311,N,12125.5866,E,1,4,2.65,24.1,M,15.1,M,,*61
$GPRMC,113810.000,A,2459.1311,N,12125.5866,E,3.43,318.18,260917,,,A*68
$GPGGA,114323.000,2459.1338,N,12125.5863,E,1,4,2.62,-2.5,M,15.1,M,,*79
$GPRMC,114323.000,A,2459.1338,N,12125.5863,E,1.75,329.80,260917,,,A*6E
$GPGGA,114444.000,2459.1359,N,12125.5878,E,1,4,2.61,1.6,M,15.1,M,,*5C
$GPRMC,114444.000,A,2459.1359,N,12125.5878,E,0.17,224.71,260917,,,A*62
$GPGGA,114648.000,2459.1071,N,12125.6147,E,1,4,1.60,226.2,M,15.1,M,,*5C
$GPRMC,114648.000,A,2459.1071,N,12125.6147,E,1.90,299.04,260917,,,A*69
$GPGGA,114755.000,2459.1101,N,12125.6064,E,1,4,1.60,93.5,M,15.1,M,,*6C
$GPRMC,114755.000,A,2459.1101,N,12125.6064,E,1.99,143.39,260917,,,A*61
$GPGGA,115437.000,2459.1266,N,12125.5960,E,1,4,1.58,63.2,M,15.1,M,,*65
$GPRMC,115437.000,A,2459.1266,N,12125.5960,E,1.75,339.27,260917,,,A*69
$GPGGA,115634.000,2459.1250,N,12125.5930,E,1,4,1.58,46.5,M,15.1,M,,*64
$GPRMC,115634.000,A,2459.1250,N,12125.5930,E,0.98,132.18,260917,,,A*6F
$GPGGA,115831.406,2459.1243,N,12125.6002,E,1,4,2.16,63.3,M,15.1,M,,*6C
$GPRMC,115831.406,A,2459.1243,N,12125.6002,E,1.74,151.92,260917,,,A*6B
$GPGGA,120046.000,2459.1129,N,12125.6003,E,1,4,2.17,23.9,M,15.1,M,,*61
$GPRMC,120046.000,A,2459.1129,N,12125.6003,E,0.64,185.71,260917,,,A*6D
$GPGGA,120726.365,2459.1264,N,12125.5991,E,1,4,2.19,38.9,M,15.1,M,,*6F
$GPRMC,120726.365,A,2459.1264,N,12125.5991,E,0.37,223.68,260917,,,A*66
$GPGGA,120851.317,2459.1241,N,12125.6023,E,1,4,2.20,51.1,M,15.1,M,,*6C
$GPRMC,120851.317,A,2459.1241,N,12125.6023,E,0.71,167.56,260917,,,A*64
$GPGGA,121715.303,2459.1260,N,12125.6033,E,1,5,1.38,56.5,M,15.1,M,,*6D
$GPRMC,121715.303,A,2459.1260,N,12125.6033,E,0.55,326.40,260917,,,A*6B
$GPGGA,121822.222,2459.1334,N,12125.5966,E,1,5,1.38,74.8,M,15.1,M,,*63
$GPRMC,121822.222,A,2459.1334,N,12125.5966,E,0.46,215.14,260917,,,A*6A
$GPGGA,122329.000,2459.1366,N,12125.6061,E,1,4,2.24,87.6,M,15.1,M,,*65
$GPRMC,122329.000,A,2459.1366,N,12125.6061,E,0.56,293.82,260917,,,A*61
$GPGGA,122734.000,2459.1338,N,12125.6057,E,1,4,2.20,82.5,M,15.1,M,,*61
$GPRMC,122734.000,A,2459.1338,N,12125.6057,E,1.63,203.00,260917,,,A*63
$GPGGA,122908.000,2459.1164,N,12125.5890,E,1,4,2.19,-14.4,M,15.1,M,,*42
$GPRMC,122908.000,A,2459.1164,N,12125.5890,E,3.43,31.34,260917,,,A*5D
$GPGGA,123158.000,2459.1372,N,12125.6033,E,1,4,2.18,57.3,M,15.1,M,,*65
$GPRMC,123158.000,A,2459.1372,N,12125.6033,E,0.63,308.81,260917,,,A*60
$GPGGA,123306.000,2459.1282,N,12125.5942,E,1,4,2.17,50.8,M,15.1,M,,*6D
$GPRMC,123306.000,A,2459.1282,N,12125.5942,E,0.69,105.63,260917,,,A*62
$GPGGA,123355.000,2459.1296,N,12125.5963,E,1,4,2.17,53.1,M,15.1,M,,*67
$GPRMC,123355.000,A,2459.1296,N,12125.5963,E,4.04,209.42,260917,,,A*61
$GPGGA,123445.000,2459.1390,N,12125.6087,E,1,4,2.17,105.6,M,15.1,M,,*53
$GPRMC,123445.000,A,2459.1390,N,12125.6087,E,1.32,240.92,260917,,,A*60
$GPGGA,123536.000,2459.1166,N,12125.5822,E,1,4,2.16,-26.5,M,15.1,M,,*46
$GPRMC,123536.000,A,2459.1166,N,12125.5822,E,2.97,194.21,260917,,,A*64
$GPGGA,123638.000,2459.0874,N,12125.5685,E,1,4,2.16,-138.0,M,15.1,M,,*78
$GPRMC,123638.000,A,2459.0874,N,12125.5685,E,2.78,34.28,260917,,,A*52
$GPGGA,102553.000,2500.3934,N,12129.3751,E,1,3,3.53,134.8,M,15.2,M,,*51
$GPRMC,102553.000,A,2500.3934,N,12129.3751,E,0.23,176.91,270917,,,A*6E
$GPGGA,102643.000,2500.4051,N,12129.3856,E,1,3,3.48,134.8,M,15.2,M,,*5C
$GPRMC,102643.000,A,2500.4051,N,12129.3856,E,0.59,196.63,270917,,,A*67
$GPGGA,102737.000,2500.4023,N,12129.3833,E,1,3,3.42,134.9,M,15.2,M,,*53
$GPRMC,102737.000,A,2500.4023,N,12129.3833,E,0.24,226.21,270917,,,A*67
$GPGGA,102825.000,2500.3921,N,12129.3771,E,1,3,3.37,134.8,M,15.2,M,,*59
$GPRMC,102825.000,A,2500.3921,N,12129.3771,E,0.20,193.08,270917,,,A*6C
$GPGGA,103013.204,2500.4036,N,12129.3920,E,1,3,3.27,134.8,M,15.2,M,,*50
$GPRMC,103013.204,A,2500.4036,N,12129.3920,E,0.20,147.87,270917,,,A*6A
$GPGGA,103143.000,2500.3828,N,12129.3888,E,1,3,3.20,134.7,M,15.2,M,,*59
$GPRMC,103143.000,A,2500.3828,N,12129.3888,E,0.22,236.68,270917,,,A*6D
$GPGGA,103231.000,2500.4073,N,12129.3893,E,1,3,3.16,134.9,M,15.2,M,,*5F
$GPRMC,103231.000,A,2500.4073,N,12129.3893,E,0.13,357.14,270917,,,A*6F
$GPGGA,103319.000,2500.4082,N,12129.3842,E,1,3,3.13,134.8,M,15.2,M,,*52
$GPRMC,103319.000,A,2500.4082,N,12129.3842,E,0.84,327.20,270917,,,A*68
$GPGGA,103413.000,2500.3838,N,12129.3809,E,1,3,3.09,134.8,M,15.2,M,,*55
$GPRMC,103413.000,A,2500.3838,N,12129.3809,E,0.50,198.42,270917,,,A*6F
$GPGGA,103519.000,2500.4008,N,12129.3842,E,1,3,3.05,134.8,M,15.2,M,,*51
$GPRMC,103519.000,A,2500.4008,N,12129.3842,E,0.28,147.24,270917,,,A*6A
$GPGGA,103635.000,2500.3715,N,12129.3967,E,1,3,3.43,17.7,M,15.2,M,,*6B
$GPRMC,103635.000,A,2500.3715,N,12129.3967,E,0.57,275.03,270917,,,A*62
$GPGGA,103725.000,2500.4307,N,12129.3836,E,1,3,3.36,135.0,M,15.2,M,,*5A
$GPRMC,103725.000,A,2500.4307,N,12129.3836,E,0.55,181.30,270917,,,A*6D
$GPGGA,103841.000,2500.3625,N,12129.4057,E,1,4,2.77,-27.3,M,15.2,M,,*42
$GPRMC,103841.000,A,2500.3625,N,12129.4057,E,0.32,190.84,270917,,,A*64
$GPGGA,103949.000,2500.3576,N,12129.4082,E,1,4,2.73,-23.4,M,15.2,M,,*41
$GPRMC,103949.000,A,2500.3576,N,12129.4082,E,1.63,284.45,270917,,,A*6E
$GPGGA,104106.000,2500.3637,N,12129.4133,E,1,3,3.09,-18.7,M,15.2,M,,*48
$GPRMC,104106.000,A,2500.3637,N,12129.4133,E,2.35,148.49,270917,,,A*68
$GPGGA,104200.000,2500.3643,N,12129.4052,E,1,3,3.04,-5.7,M,15.2,M,,*79
$GPRMC,104200.000,A,2500.3643,N,12129.4052,E,1.11,339.95,270917,,,A*68
$GPGGA,104245.303,2500.3637,N,12129.4137,E,1,4,2.63,-42.6,M,15.2,M,,*4C
$GPRMC,104245.303,A,2500.3637,N,12129.4137,E,1.80,336.94,270917,,,A*6E
$GPGGA,104330.000,2500.3665,N,12129.3985,E,1,4,2.60,23.7,M,15.2,M,,*66
$GPRMC,104330.000,A,2500.3665,N,12129.3985,E,1.79,137.79,270917,,,A*6A
$GPGGA,104416.000,2500.3879,N,12129.3939,E,1,4,2.58,65.3,M,15.2,M,,*6C
$GPRMC,104416.000,A,2500.3879,N,12129.3939,E,0.75,287.47,270917,,,A*65
$GPGGA,104506.000,2500.3770,N,12129.4147,E,1,3,2.87,9.7,M,15.2,M,,*57
$GPRMC,104506.000,A,2500.3770,N,12129.4147,E,0.82,170.01,270917,,,A*64
$GPGGA,104606.000,2500.3600,N,12129.3931,E,1,4,2.53,20.4,M,15.2,M,,*6A
$GPRMC,104606.000,A,2500.3600,N,12129.3931,E,1.67,204.51,270917,,,A*60
$GPGGA,104725.000,2500.3890,N,12129.4129,E,1,3,2.77,46.7,M,15.2,M,,*69
$GPRMC,104725.000,A,2500.3890,N,12129.4129,E,1.24,76.61,270917,,,A*52
$GPGGA,104834.000,2500.3327,N,12129.4264,E,1,4,2.47,43.0,M,15.2,M,,*6D
$GPRMC,104834.000,A,2500.3327,N,12129.4264,E,14.72,282.34,270917,,,A*5E
$GPGGA,104923.000,2500.3647,N,12129.3052,E,1,4,2.45,327.5,M,15.2,M,,*5F
$GPRMC,104923.000,A,2500.3647,N,12129.3052,E,1.19,133.23,270917,,,A*6C
$GPGGA,105047.000,2500.1884,N,12129.4484,E,1,3,2.75,134.8,M,15.2,M,,*57
$GPRMC,105047.000,A,2500.1884,N,12129.4484,E,0.24,286.77,270917,,,A*6E
$GPGGA,105400.000,2500.1599,N,12129.9085,E,1,3,2.75,134.8,M,15.2,M,,*59
$GPRMC,105400.000,A,2500.1599,N,12129.9085,E,0.38,311.72,270917,,,A*67
$GPGGA,105612.000,2500.3942,N,12130.3709,E,1,3,2.75,135.4,M,15.2,M,,*5C
$GPRMC,105612.000,A,2500.3942,N,12130.3709,E,10.21,66.95,270917,,,A*6C
$GPGGA,105752.298,2500.4322,N,12130.5578,E,1,4,2.30,12.0,M,15.2,M,,*65
$GPRMC,105752.298,A,2500.4322,N,12130.5578,E,7.87,143.77,270917,,,A*63
$GPGGA,105922.000,2500.2587,N,12130.7569,E,1,4,2.28,30.8,M,15.2,M,,*63
$GPRMC,105922.000,A,2500.2587,N,12130.7569,E,7.38,121.13,270917,,,A*66
$GPGGA,111303.000,2500.2312,N,12130.7748,E,1,4,1.80,10.1,M,15.2,M,,*6E
$GPRMC,111303.000,A,2500.2312,N,12130.7748,E,0.72,140.10,270917,,,A*6C
$GPGGA,111425.000,2500.1933,N,12130.7632,E,1,4,1.79,49.3,M,15.2,M,,*63
$GPRMC,111425.000,A,2500.1933,N,12130.7632,E,1.78,197.80,270917,,,A*61
$GPGGA,111518.000,2500.1946,N,12130.7714,E,1,3,4.81,66.9,M,15.2,M,,*69
$GPRMC,111518.000,A,2500.1946,N,12130.7714,E,1.64,19.20,270917,,,A*59
$GPGGA,111606.000,2500.1833,N,12130.7768,E,1,4,1.94,132.8,M,15.2,M,,*5A
$GPRMC,111606.000,A,2500.1833,N,12130.7768,E,0.37,13.45,270917,,,A*53
$GPGGA,111823.310,2500.2363,N,12130.7757,E,1,5,1.71,21.7,M,15.2,M,,*66
$GPRMC,111823.310,A,2500.2363,N,12130.7757,E,0.37,26.97,270917,,,A*50
$GPGGA,111912.000,2500.2525,N,12130.7813,E,1,3,5.73,25.2,M,15.2,M,,*6D
$GPRMC,111912.000,A,2500.2525,N,12130.7813,E,1.52,16.93,270917,,,A*5F
$GPGGA,112000.000,2500.2315,N,12130.7774,E,1,3,5.97,31.5,M,15.2,M,,*67
$GPRMC,112000.000,A,2500.2315,N,12130.7774,E,0.62,216.07,270917,,,A*60
$GPGGA,112047.000,2500.2383,N,12130.7774,E,1,4,5.70,30.0,M,15.2,M,,*61
$GPRMC,112047.000,A,2500.2383,N,12130.7774,E,0.37,358.91,270917,,,A*68
$GPGGA,112135.000,2500.2348,N,12130.7776,E,1,4,5.87,21.3,M,15.2,M,,*6B
$GPRMC,112135.000,A,2500.2348,N,12130.7776,E,1.36,200.84,270917,,,A*61
$GPGGA,112221.308,2500.2396,N,12130.7762,E,1,4,6.03,13.7,M,15.2,M,,*6A
$GPRMC,112221.308,A,2500.2396,N,12130.7762,E,2.92,180.68,270917,,,A*6E
$GPGGA,112311.000,2500.2090,N,12130.7715,E,1,5,1.67,4.1,M,15.2,M,,*52
$GPRMC,112311.000,A,2500.2090,N,12130.7715,E,0.85,29.70,270917,,,A*5D
$GPGGA,112400.000,2500.1949,N,12130.7787,E,1,3,7.58,132.3,M,15.2,M,,*5A
$GPRMC,112400.000,A,2500.1949,N,12130.7787,E,0.89,3.57,270917,,,A*6E
$GPGGA,112447.000,2500.2399,N,12130.7768,E,1,5,1.43,-9.8,M,15.2,M,,*79
$GPRMC,112447.000,A,2500.2399,N,12130.7768,E,0.32,7.46,270917,,,A*6C
$GPGGA,112536.000,2500.1633,N,12130.7758,E,1,3,8.52,134.8,M,15.2,M,,*56
$GPRMC,112536.000,A,2500.1633,N,12130.7758,E,0.19,329.55,270917,,,A*6A
$GPGGA,112624.000,2500.2354,N,12130.7755,E,1,3,9.09,23.4,M,15.2,M,,*68
$GPRMC,112624.000,A,2500.2354,N,12130.7755,E,0.42,31.45,270917,,,A*55
$GPGGA,112712.000,2500.2288,N,12130.7756,E,1,3,9.75,23.3,M,15.2,M,,*63
$GPRMC,112712.000,A,2500.2288,N,12130.7756,E,0.34,314.64,270917,,,A*64
$GPGGA,112800.000,2500.1445,N,12130.7748,E,1,3,10.51,134.9,M,15.2,M,,*67
$GPRMC,112800.000,A,2500.1445,N,12130.7748,E,0.27,4.14,270917,,,A*64
$GPGGA,112848.000,2500.1953,N,12130.7790,E,1,4,1.79,133.4,M,15.2,M,,*53
$GPRMC,112848.000,A,2500.1953,N,12130.7790,E,0.45,340.92,270917,,,A*6E
$GPGGA,112941.000,2500.2050,N,12130.7845,E,1,4,1.74,114.1,M,15.2,M,,*58
$GPRMC,112941.000,A,2500.2050,N,12130.7845,E,0.44,349.53,270917,,,A*6D
$GPGGA,113031.000,2500.1675,N,12130.7760,E,1,3,13.95,131.3,M,15.2,M,,*63
$GPRMC,113031.000,A,2500.1675,N,12130.7760,E,0.31,338.44,270917,,,A*6A
$GPGGA,114727.000,2500.2248,N,12130.7794,E,1,4,1.78,134.8,M,15.2,M,,*5F
$GPRMC,114727.000,A,2500.2248,N,12130.7794,E,0.11,323.64,270917,,,A*65
$GPGGA,114824.000,2500.2541,N,12130.7732,E,1,3,10.17,134.8,M,15.2,M,,*6F
$GPRMC,114824.000,A,2500.2541,N,12130.7732,E,0.28,33.07,270917,,,A*56
$GPGGA,115334.000,2500.2711,N,12130.7812,E,1,3,5.72,134.3,M,15.2,M,,*52
$GPRMC,115334.000,A,2500.2711,N,12130.7812,E,0.43,212.08,270917,,,A*64
$GPGGA,115423.000,2500.2493,N,12130.7813,E,1,5,1.54,-15.2,M,15.2,M,,*43
$GPRMC,115423.000,A,2500.2493,N,12130.7813,E,0.09,215.26,270917,,,A*68
$GPGGA,115512.000,2500.2779,N,12130.7857,E,1,3,2.18,134.8,M,15.2,M,,*5F
$GPRMC,115512.000,A,2500.2779,N,12130.7857,E,0.56,211.17,270917,,,A*60
$GPGGA,115559.000,2500.2409,N,12130.7793,E,1,4,1.56,-72.1,M,15.2,M,,*4A
$GPRMC,115559.000,A,2500.2409,N,12130.7793,E,0.29,191.69,270917,,,A*66
$GPGGA,115658.092,2500.2402,N,12130.7830,E,1,4,1.78,-117.8,M,15.2,M,,*79
$GPRMC,115658.092,A,2500.2402,N,12130.7830,E,1.25,11.39,270917,,,A*53
$GPGGA,115747.000,2500.2142,N,12130.7810,E,1,4,1.76,-273.5,M,15.2,M,,*7C
$GPRMC,115747.000,A,2500.2142,N,12130.7810,E,1.58,348.88,270917,,,A*6B
$GPGGA,115839.305,2500.2156,N,12130.7880,E,1,4,1.73,-312.0,M,15.2,M,,*76
$GPRMC,115839.305,A,2500.2156,N,12130.7880,E,1.14,199.08,270917,,,A*69
$GPGGA,120012.000,2500.2247,N,12130.7835,E,1,4,1.70,-268.9,M,15.2,M,,*7C
$GPRMC,120012.000,A,2500.2247,N,12130.7835,E,1.19,12.10,270917,,,A*53
$GPGGA,120102.000,2500.2511,N,12130.7794,E,1,5,1.49,-17.2,M,15.2,M,,*46
$GPRMC,120102.000,A,2500.2511,N,12130.7794,E,0.26,8.04,270917,,,A*60
$GPGGA,120201.000,2500.2437,N,12130.7743,E,1,5,1.48,-5.4,M,15.2,M,,*7D
$GPRMC,120201.000,A,2500.2437,N,12130.7743,E,0.41,357.78,270917,,,A*6C
$GPGGA,120305.000,2500.2184,N,12130.7520,E,1,4,3.42,43.0,M,15.2,M,,*60
$GPRMC,120305.000,A,2500.2184,N,12130.7520,E,0.33,192.83,270917,,,A*69
$GPGGA,120543.000,2500.2525,N,12130.7873,E,1,5,1.32,-120.9,M,15.2,M,,*74
$GPRMC,120543.000,A,2500.2525,N,12130.7873,E,0.98,229.42,270917,,,A*66
$GPGGA,120629.000,2500.2540,N,12130.7894,E,1,5,1.32,-94.5,M,15.2,M,,*43
$GPRMC,120629.000,A,2500.2540,N,12130.7894,E,0.16,186.80,270917,,,A*6D
$GPGGA,120736.000,2500.2434,N,12130.7773,E,1,5,1.32,-28.9,M,15.2,M,,*43
$GPRMC,120736.000,A,2500.2434,N,12130.7773,E,1.10,231.11,270917,,,A*66
$GPGGA,120823.000,2500.2519,N,12130.7845,E,1,5,1.43,-44.1,M,15.2,M,,*48
$GPRMC,120823.000,A,2500.2519,N,12130.7845,E,0.09,164.36,270917,,,A*66
$GPGGA,120939.304,2500.2560,N,12130.7841,E,1,4,1.68,-10.1,M,15.2,M,,*46
$GPRMC,120939.304,A,2500.2560,N,12130.7841,E,0.23,51.00,270917,,,A*5B
$GPGGA,121050.000,2500.2852,N,12130.8174,E,1,4,3.74,-32.7,M,15.2,M,,*43
$GPRMC,121050.000,A,2500.2852,N,12130.8174,E,1.48,40.06,270917,,,A*5D
$GPGGA,121135.000,2500.2335,N,12130.7665,E,1,5,1.97,7.4,M,15.2,M,,*55
$GPRMC,121135.000,A,2500.2335,N,12130.7665,E,1.15,229.56,270917,,,A*6D
$GPGGA,121223.000,2500.2530,N,12130.7866,E,1,6,1.25,-46.1,M,15.2,M,,*48
$GPRMC,121223.000,A,2500.2530,N,12130.7866,E,0.02,61.99,270917,,,A*5D
$GPGGA,121315.208,2500.2552,N,12130.7805,E,1,6,1.34,3.9,M,15.2,M,,*53
$GPRMC,121315.208,A,2500.2552,N,12130.7805,E,0.33,231.29,270917,,,A*6C
$GPGGA,121421.094,2500.2478,N,12130.7753,E,1,5,1.65,16.1,M,15.2,M,,*6A
$GPRMC,121421.094,A,2500.2478,N,12130.7753,E,2.02,216.89,270917,,,A*61
$GPGGA,121529.098,2500.2668,N,12130.7897,E,1,4,1.88,94.0,M,15.2,M,,*62
$GPRMC,121529.098,A,2500.2668,N,12130.7897,E,0.91,215.70,270917,,,A*6D
$GPGGA,121639.097,2500.2439,N,12130.7706,E,1,4,2.15,11.2,M,15.2,M,,*66
$GPRMC,121639.097,A,2500.2439,N,12130.7706,E,1.08,35.23,270917,,,A*56
$GPGGA,121803.307,2500.2500,N,12130.7792,E,1,5,2.11,6.1,M,15.2,M,,*5D
$GPRMC,121803.307,A,2500.2500,N,12130.7792,E,1.96,222.82,270917,,,A*65
$GPGGA,121857.090,2500.2439,N,12130.7743,E,1,5,2.10,-0.1,M,15.2,M,,*7C
$GPRMC,121857.090,A,2500.2439,N,12130.7743,E,0.39,29.10,270917,,,A*58
$GPGGA,122009.000,2500.2400,N,12130.7753,E,1,5,2.09,-34.8,M,15.2,M,,*48
$GPRMC,122009.000,A,2500.2400,N,12130.7753,E,0.71,327.61,270917,,,A*6D
$GPGGA,122105.000,2500.2407,N,12130.7677,E,1,5,2.09,-38.2,M,15.2,M,,*43
$GPRMC,122105.000,A,2500.2407,N,12130.7677,E,0.91,155.52,270917,,,A*69
$GPGGA,122157.306,2500.2384,N,12130.7676,E,1,4,2.10,6.4,M,15.2,M,,*53
$GPRMC,122157.306,A,2500.2384,N,12130.7676,E,1.07,37.69,270917,,,A*55
$GPGGA,122251.091,2500.2437,N,12130.7715,E,1,4,2.08,20.6,M,15.2,M,,*6F
$GPRMC,122251.091,A,2500.2437,N,12130.7715,E,0.13,44.48,270917,,,A*55
$GPGGA,122423.000,2500.2400,N,12130.7621,E,1,4,2.24,19.5,M,15.2,M,,*61
$GPRMC,122423.000,A,2500.2400,N,12130.7621,E,1.80,219.56,270917,,,A*62
$GPGGA,122557.000,2500.2513,N,12130.7946,E,1,6,1.28,-117.0,M,15.2,M,,*74
$GPRMC,122557.000,A,2500.2513,N,12130.7946,E,1.10,235.15,270917,,,A*6D
$GPGGA,122651.291,2500.2508,N,12130.7804,E,1,4,2.24,-8.1,M,15.2,M,,*75
$GPRMC,122651.291,A,2500.2508,N,12130.7804,E,0.82,21.67,270917,,,A*57
$GPGGA,122748.303,2500.2400,N,12130.7739,E,1,7,1.22,23.2,M,15.2,M,,*6F
$GPRMC,122748.303,A,2500.2400,N,12130.7739,E,0.14,271.60,270917,,,A*63
$GPGGA,122835.000,2500.2492,N,12130.7704,E,1,5,1.35,40.2,M,15.2,M,,*6E
$GPRMC,122835.000,A,2500.2492,N,12130.7704,E,0.53,238.90,270917,,,A*62
$GPGGA,122927.096,2500.2459,N,12130.7747,E,1,4,2.23,25.0,M,15.2,M,,*67
$GPRMC,122927.096,A,2500.2459,N,12130.7747,E,0.23,8.81,270917,,,A*69
$GPGGA,123017.000,2500.2251,N,12130.7577,E,1,5,2.14,43.6,M,15.2,M,,*6F
$GPRMC,123017.000,A,2500.2251,N,12130.7577,E,0.67,73.74,270917,,,A*54
$GPGGA,123227.000,2500.2469,N,12130.7689,E,1,5,2.10,39.4,M,15.2,M,,*6A
$GPRMC,123227.000,A,2500.2469,N,12130.7689,E,0.22,337.07,270917,,,A*6C
$GPGGA,123317.000,2500.2375,N,12130.7878,E,1,7,1.21,-25.7,M,15.2,M,,*42
$GPRMC,123317.000,A,2500.2375,N,12130.7878,E,0.95,226.65,270917,,,A*6D
$GPGGA,123405.000,2500.2409,N,12130.7721,E,1,5,2.02,-5.5,M,15.2,M,,*79
$GPRMC,123405.000,A,2500.2409,N,12130.7721,E,0.49,353.54,270917,,,A*66
$GPGGA,123511.305,2500.2331,N,12130.7657,E,1,6,1.99,-0.3,M,15.2,M,,*76
$GPRMC,123511.305,A,2500.2331,N,12130.7657,E,2.92,42.54,270917,,,A*5F
$GPGGA,123605.000,2500.2320,N,12130.7734,E,1,4,2.23,4.9,M,15.2,M,,*51
$GPRMC,123605.000,A,2500.2320,N,12130.7734,E,0.54,103.05,270917,,,A*63
$GPGGA,123723.000,2500.2225,N,12130.7721,E,1,5,2.08,-20.7,M,15.2,M,,*49
$GPRMC,123723.000,A,2500.2225,N,12130.7721,E,1.12,16.17,270917,,,A*53
$GPGGA,123811.000,2500.2286,N,12130.7640,E,1,4,2.22,16.4,M,15.2,M,,*6A
$GPRMC,123811.000,A,2500.2286,N,12130.7640,E,0.26,121.97,270917,,,A*69
$GPGGA,123903.096,2500.2465,N,12130.7720,E,1,4,2.22,43.3,M,15.2,M,,*6C
$GPRMC,123903.096,A,2500.2465,N,12130.7720,E,1.20,42.68,270917,,,A*5B
$GPGGA,124015.094,2500.2524,N,12130.7731,E,1,4,2.22,26.8,M,15.2,M,,*6B
$GPRMC,124015.094,A,2500.2524,N,12130.7731,E,0.97,51.70,270917,,,A*52
$GPGGA,124133.304,2500.2396,N,12130.7671,E,1,4,2.21,37.0,M,15.2,M,,*65
$GPRMC,124133.304,A,2500.2396,N,12130.7671,E,0.52,211.78,270917,,,A*60
$GPGGA,124227.306,2500.2465,N,12130.7677,E,1,4,2.20,44.7,M,15.2,M,,*6E
$GPRMC,124227.306,A,2500.2465,N,12130.7677,E,1.37,43.61,270917,,,A*56
$GPGGA,124320.298,2500.2397,N,12130.7675,E,1,4,2.19,1.8,M,15.2,M,,*52
$GPRMC,124320.298,A,2500.2397,N,12130.7675,E,1.36,213.28,270917,,,A*65
$GPGGA,124411.000,2500.2365,N,12130.7718,E,1,5,2.02,24.6,M,15.2,M,,*61
$GPRMC,124411.000,A,2500.2365,N,12130.7718,E,0.93,205.08,270917,,,A*6F
$GPGGA,124459.000,2500.2430,N,12130.7659,E,1,5,2.06,63.1,M,15.2,M,,*6E
$GPRMC,124459.000,A,2500.2430,N,12130.7659,E,1.06,79.53,270917,,,A*5A
$GPGGA,124553.000,2500.2488,N,12130.7783,E,1,7,1.20,31.0,M,15.2,M,,*63
$GPRMC,124553.000,A,2500.2488,N,12130.7783,E,0.28,330.06,270917,,,A*67
$GPGGA,124646.290,2500.2387,N,12130.7674,E,1,6,1.97,27.0,M,15.2,M,,*64
$GPRMC,124646.290,A,2500.2387,N,12130.7674,E,0.82,233.46,270917,,,A*6C
$GPGGA,124742.000,2500.2403,N,12130.7672,E,1,6,1.96,38.0,M,15.2,M,,*68
$GPRMC,124742.000,A,2500.2403,N,12130.7672,E,0.81,31.95,270917,,,A*52
$GPGGA,124828.098,2500.2432,N,12130.7670,E,1,5,2.12,42.1,M,15.2,M,,*6A
$GPRMC,124828.098,A,2500.2432,N,12130.7670,E,0.82,36.69,270917,,,A*57
$GPGGA,124918.000,2500.2451,N,12130.7719,E,1,6,1.95,19.7,M,15.2,M,,*65
$GPRMC,124918.000,A,2500.2451,N,12130.7719,E,2.22,32.97,270917,,,A*52
$GPGGA,124950.620,2500.2402,N,12130.7715,E,1,5,2.04,20.7,M,15.2,M,,*65
$GPRMC,124950.620,A,2500.2402,N,12130.7715,E,0.38,85.63,270917,,,A*5E
$GPGGA,125027.609,2500.2384,N,12130.7638,E,1,5,5.43,20.0,M,15.2,M,,*62
$GPRMC,125027.609,A,2500.2384,N,12130.7638,E,9.02,43.33,270917,,,A*55
$GPGGA,125103.622,2500.2200,N,12130.7457,E,1,5,5.45,19.7,M,15.2,M,,*61
$GPRMC,125103.622,A,2500.2200,N,12130.7457,E,0.95,20.94,270917,,,A*52
$GPGGA,125138.620,2500.1922,N,12130.7257,E,1,6,1.42,23.5,M,15.2,M,,*6E
$GPRMC,125138.620,A,2500.1922,N,12130.7257,E,1.96,38.14,270917,,,A*55
$GPGGA,125213.492,2500.2294,N,12130.7565,E,1,5,5.47,19.7,M,15.2,M,,*65
$GPRMC,125213.492,A,2500.2294,N,12130.7565,E,2.03,293.76,270917,,,A*6F
$GPGGA,125249.604,2500.2286,N,12130.7562,E,1,6,1.91,20.6,M,15.2,M,,*64
$GPRMC,125249.604,A,2500.2286,N,12130.7562,E,1.85,42.91,270917,,,A*53
$GPGGA,125323.573,2500.2393,N,12130.7659,E,1,5,2.02,19.8,M,15.2,M,,*6A
$GPRMC,125323.573,A,2500.2393,N,12130.7659,E,3.89,40.19,270917,,,A*5F
$GPGGA,125356.590,2500.2488,N,12130.7679,E,1,5,2.01,19.7,M,15.2,M,,*66
$GPRMC,125356.590,A,2500.2488,N,12130.7679,E,5.77,51.05,270917,,,A*55
$GPGGA,125430.588,2500.2400,N,12130.7689,E,1,5,2.01,31.6,M,15.2,M,,*6C
$GPRMC,125430.588,A,2500.2400,N,12130.7689,E,0.69,76.50,270917,,,A*5B
$GPGGA,125505.569,2500.2421,N,12130.7629,E,1,5,2.00,-2.8,M,15.2,M,,*7F
$GPRMC,125505.569,A,2500.2421,N,12130.7629,E,0.81,11.62,270917,,,A*5C
$GPGGA,125539.557,2500.2335,N,12130.7618,E,1,6,1.88,6.2,M,15.2,M,,*5E
$GPRMC,125539.557,A,2500.2335,N,12130.7618,E,3.16,42.58,270917,,,A*5C
$GPGGA,125613.552,2500.2353,N,12130.7675,E,1,5,1.99,16.8,M,15.2,M,,*63
$GPRMC,125613.552,A,2500.2353,N,12130.7675,E,2.41,41.00,270917,,,A*54
$GPGGA,125646.535,2500.2352,N,12130.7622,E,1,6,1.87,-0.3,M,15.2,M,,*7C
$GPRMC,125646.535,A,2500.2352,N,12130.7622,E,0.99,209.46,270917,,,A*6D
$GPGGA,125719.552,2500.2339,N,12130.7675,E,1,6,1.86,-0.8,M,15.2,M,,*73
$GPRMC,125719.552,A,2500.2339,N,12130.7675,E,3.15,16.78,270917,,,A*5E
$GPGGA,125801.557,2500.2302,N,12130.7607,E,1,5,5.21,14.1,M,15.2,M,,*66
$GPRMC,125801.557,A,2500.2302,N,12130.7607,E,1.41,50.14,270917,,,A*5B
$GPGGA,125836.546,2500.2393,N,12130.7658,E,1,6,1.84,15.2,M,15.2,M,,*6A
$GPRMC,125836.546,A,2500.2393,N,12130.7658,E,0.29,261.89,270917,,,A*66
$GPGGA,125912.596,2500.1904,N,12130.7161,E,1,6,1.83,26.1,M,15.2,M,,*6E
$GPRMC,125912.596,A,2500.1904,N,12130.7161,E,0.97,41.94,270917,,,A*5F
$GPGGA,125947.537,2500.2405,N,12130.7677,E,1,5,1.95,14.1,M,15.2,M,,*6F
$GPRMC,125947.537,A,2500.2405,N,12130.7677,E,0.55,353.09,270917,,,A*61
$GPGGA,130022.517,2500.2326,N,12130.7566,E,1,5,1.94,14.2,M,15.2,M,,*64
$GPRMC,130022.517,A,2500.2326,N,12130.7566,E,5.19,25.26,270917,,,A*5A
$GPGGA,130100.517,2500.2393,N,12130.7669,E,1,5,4.89,14.1,M,15.2,M,,*6D
$GPRMC,130100.517,A,2500.2393,N,12130.7669,E,1.69,217.00,270917,,,A*6D
$GPGGA,130137.509,2500.2298,N,12130.7601,E,1,6,1.80,7.3,M,15.2,M,,*5D
$GPRMC,130137.509,A,2500.2298,N,12130.7601,E,4.22,25.64,270917,,,A*59
$GPGGA,130217.548,2500.1678,N,12130.7036,E,1,5,4.74,14.4,M,15.2,M,,*6A
$GPRMC,130217.548,A,2500.1678,N,12130.7036,E,0.90,231.65,270917,,,A*6D
$GPGGA,130256.556,2500.1861,N,12130.7179,E,1,5,4.66,14.0,M,15.2,M,,*6B
$GPRMC,130256.556,A,2500.1861,N,12130.7179,E,1.76,42.14,270917,,,A*52
$GPGGA,130333.491,2500.2374,N,12130.7657,E,1,6,1.77,3.9,M,15.2,M,,*5D
$GPRMC,130333.491,A,2500.2374,N,12130.7657,E,1.20,74.95,270917,,,A*52
$GPGGA,130415.000,2500.2277,N,12130.7579,E,1,5,4.50,13.0,M,15.2,M,,*64
$GPRMC,130415.000,A,2500.2277,N,12130.7579,E,1.30,34.88,270917,,,A*59
$GPGGA,130457.000,2500.2318,N,12130.7614,E,1,5,4.41,10.9,M,15.2,M,,*68
$GPRMC,130457.000,A,2500.2318,N,12130.7614,E,4.44,36.38,270917,,,A*50
$GPGGA,130537.482,2500.2270,N,12130.7533,E,1,5,4.33,12.9,M,15.2,M,,*6F
$GPRMC,130537.482,A,2500.2270,N,12130.7533,E,0.89,297.88,270917,,,A*67
$GPGGA,130612.477,2500.2315,N,12130.7602,E,1,5,1.86,11.8,M,15.2,M,,*6B
$GPRMC,130612.477,A,2500.2315,N,12130.7602,E,0.85,349.57,270917,,,A*66
$GPGGA,130648.461,2500.2415,N,12130.7698,E,1,6,1.72,12.3,M,15.2,M,,*67
$GPRMC,130648.461,A,2500.2415,N,12130.7698,E,1.73,34.12,270917,,,A*5A
$GPGGA,130724.453,2500.2431,N,12130.7690,E,1,6,1.72,12.5,M,15.2,M,,*65
$GPRMC,130724.453,A,2500.2431,N,12130.7690,E,1.51,61.13,270917,,,A*5F
$GPGGA,130802.522,2500.1857,N,12130.7260,E,1,5,4.04,13.4,M,15.2,M,,*6A
$GPRMC,130802.522,A,2500.1857,N,12130.7260,E,1.75,31.80,270917,,,A*5E
$GPGGA,130839.477,2500.2170,N,12130.7500,E,1,5,1.53,13.0,M,15.2,M,,*6E
$GPRMC,130839.477,A,2500.2170,N,12130.7500,E,1.74,2.04,270917,,,A*64
$GPGGA,130919.446,2500.2883,N,12130.8083,E,1,5,3.90,-4.3,M,15.2,M,,*7E
$GPRMC,130919.446,A,2500.2883,N,12130.8083,E,1.33,22.71,270917,,,A*52
$GPGGA,131001.439,2500.2610,N,12130.7851,E,1,5,3.82,-1.9,M,15.2,M,,*77
$GPRMC,131001.439,A,2500.2610,N,12130.7851,E,0.27,278.09,270917,,,A*61
$GPGGA,131043.432,2500.2358,N,12130.7690,E,1,5,3.75,-2.0,M,15.2,M,,*72
$GPRMC,131043.432,A,2500.2358,N,12130.7690,E,1.38,235.50,270917,,,A*6C
$GPGGA,131125.426,2500.2258,N,12130.7615,E,1,5,3.68,0.3,M,15.2,M,,*5A
$GPRMC,131125.426,A,2500.2258,N,12130.7615,E,0.89,181.07,270917,,,A*61
$GPGGA,131201.419,2500.2374,N,12130.7682,E,1,5,1.77,-2.1,M,15.2,M,,*73
$GPRMC,131201.419,A,2500.2374,N,12130.7682,E,1.63,24.45,270917,,,A*54
$GPGGA,131243.413,2500.1053,N,12130.6694,E,1,4,4.44,-1.2,M,15.2,M,,*78
$GPRMC,131243.413,A,2500.1053,N,12130.6694,E,0.88,226.36,270917,,,A*6B
$GPGGA,131325.406,2500.2898,N,12130.8048,E,1,5,3.48,-5.6,M,15.2,M,,*72
$GPRMC,131325.406,A,2500.2898,N,12130.8048,E,0.63,325.14,270917,,,A*6C
$GPGGA,131401.409,2500.2345,N,12130.7755,E,1,6,1.62,-1.4,M,15.2,M,,*7C
$GPRMC,131401.409,A,2500.2345,N,12130.7755,E,0.82,332.35,270917,,,A*67
$GPGGA,131440.431,2500.2122,N,12130.7446,E,1,6,1.43,-1.2,M,15.2,M,,*75
$GPRMC,131440.431,A,2500.2122,N,12130.7446,E,0.61,127.08,270917,,,A*6E
$GPGGA,131514.375,2500.2825,N,12130.7375,E,1,4,2.41,95.6,M,15.2,M,,*6C
$GPRMC,131514.375,A,2500.2825,N,12130.7375,E,5.72,354.53,270917,,,A*6F
$GPGGA,131550.380,2500.4031,N,12130.5864,E,1,6,1.60,-3.4,M,15.2,M,,*76
$GPRMC,131550.380,A,2500.4031,N,12130.5864,E,28.95,325.37,270917,,,A*55
$GPGGA,131627.377,2500.4728,N,12130.5091,E,1,5,1.71,-4.7,M,15.2,M,,*77
$GPRMC,131627.377,A,2500.4728,N,12130.5091,E,2.43,200.73,270917,,,A*66
$GPGGA,131702.336,2500.4385,N,12130.4306,E,1,6,1.42,58.1,M,15.2,M,,*6A
$GPRMC,131702.336,A,2500.4385,N,12130.4306,E,5.45,265.05,270917,,,A*69
$GPGGA,131738.361,2500.3697,N,12130.3746,E,1,7,1.31,-4.2,M,15.2,M,,*75
$GPRMC,131738.361,A,2500.3697,N,12130.3746,E,22.01,227.95,270917,,,A*5E
$GPGGA,131813.347,2500.3061,N,12130.2602,E,1,5,2.20,32.4,M,15.2,M,,*67
$GPRMC,131813.347,A,2500.3061,N,12130.2602,E,25.95,236.44,270917,,,A*55
$GPGGA,131848.328,2500.1657,N,12130.0202,E,1,5,1.69,22.8,M,15.2,M,,*64
$GPRMC,131848.328,A,2500.1657,N,12130.0202,E,11.14,247.48,270917,,,A*51
$GPGGA,131928.301,2500.1617,N,12130.0136,E,1,4,2.47,6.5,M,15.2,M,,*5D
$GPRMC,131928.301,A,2500.1617,N,12130.0136,E,0.56,259.56,270917,,,A*6B
$GPGGA,132004.314,2500.1574,N,12129.9784,E,1,5,1.67,-22.0,M,15.2,M,,*4B
$GPRMC,132004.314,A,2500.1574,N,12129.9784,E,18.11,258.92,270917,,,A*50
$GPGGA,132040.316,2500.0894,N,12129.8490,E,1,6,1.45,44.7,M,15.2,M,,*65
$GPRMC,132040.316,A,2500.0894,N,12129.8490,E,14.67,219.50,270917,,,A*51
$GPGGA,132116.330,2459.9312,N,12129.7487,E,1,6,1.53,-10.8,M,15.2,M,,*4F
$GPRMC,132116.330,A,2459.9312,N,12129.7487,E,26.37,211.94,270917,,,A*5B
$GPGGA,132151.310,2459.8626,N,12129.6564,E,1,7,1.29,-10.7,M,15.2,M,,*43
$GPRMC,132151.310,A,2459.8626,N,12129.6564,E,0.82,213.26,270917,,,A*65
$GPGGA,132225.317,2459.8821,N,12129.6654,E,1,6,1.52,50.5,M,15.2,M,,*6B
$GPRMC,132225.317,A,2459.8821,N,12129.6654,E,3.38,188.95,270917,,,A*60
$GPGGA,132302.271,2459.8036,N,12129.4921,E,1,6,1.40,123.3,M,15.2,M,,*5F
$GPRMC,132302.271,A,2459.8036,N,12129.4921,E,1.86,324.12,270917,,,A*68
$GPGGA,132338.257,2459.7912,N,12129.3652,E,1,6,1.45,123.0,M,15.2,M,,*58
$GPRMC,132338.257,A,2459.7912,N,12129.3652,E,30.04,256.98,270917,,,A*57
$GPGGA,132412.319,2459.7715,N,12129.1832,E,1,6,1.50,61.3,M,15.2,M,,*6F
$GPRMC,132412.319,A,2459.7715,N,12129.1832,E,1.69,321.89,270917,,,A*68
$GPGGA,132451.343,2459.7820,N,12129.1954,E,1,6,1.45,102.6,M,15.2,M,,*5A
$GPRMC,132451.343,A,2459.7820,N,12129.1954,E,2.36,225.30,270917,,,A*66
$GPGGA,132528.281,2459.7790,N,12129.0942,E,1,6,1.49,29.3,M,15.2,M,,*69
$GPRMC,132528.281,A,2459.7790,N,12129.0942,E,14.92,254.20,270917,,,A*5A
$GPGGA,132604.260,2459.7262,N,12128.9166,E,1,6,1.48,47.7,M,15.2,M,,*68
$GPRMC,132604.260,A,2459.7262,N,12128.9166,E,7.20,272.87,270917,,,A*64
$GPGGA,132641.264,2459.6788,N,12128.7714,E,1,6,1.48,50.1,M,15.2,M,,*60
$GPRMC,132641.264,A,2459.6788,N,12128.7714,E,17.64,251.15,270917,,,A*57
$GPGGA,132718.266,2459.6452,N,12128.7059,E,1,6,1.45,7.2,M,15.2,M,,*59
$GPRMC,132718.266,A,2459.6452,N,12128.7059,E,3.75,319.05,270917,,,A*6B
$GPGGA,132751.244,2459.5337,N,12128.6115,E,1,7,1.27,46.3,M,15.2,M,,*6A
$GPRMC,132751.244,A,2459.5337,N,12128.6115,E,28.82,230.84,270917,,,A*5B
$GPGGA,132824.225,2459.4481,N,12128.3971,E,1,5,1.53,56.6,M,15.2,M,,*61
$GPRMC,132824.225,A,2459.4481,N,12128.3971,E,30.05,240.96,270917,,,A*57
$GPGGA,132902.241,2459.3673,N,12128.2321,E,1,5,2.32,78.6,M,15.2,M,,*68
$GPRMC,132902.241,A,2459.3673,N,12128.2321,E,1.50,267.59,270917,,,A*62
$GPGGA,132944.245,2459.3679,N,12128.2303,E,1,4,2.63,101.5,M,15.2,M,,*5D
$GPRMC,132944.245,A,2459.3679,N,12128.2303,E,4.34,301.52,270917,,,A*63
$GPGGA,133020.189,2459.2920,N,12128.0857,E,1,6,1.44,75.8,M,15.2,M,,*65
$GPRMC,133020.189,A,2459.2920,N,12128.0857,E,25.95,244.65,270917,,,A*5C
$GPGGA,133057.212,2459.2061,N,12127.9214,E,1,6,1.44,94.7,M,15.2,M,,*63
$GPRMC,133057.212,A,2459.2061,N,12127.9214,E,6.19,357.83,270917,,,A*64
$GPGGA,133135.231,2459.2810,N,12127.8688,E,1,6,1.43,19.2,M,15.2,M,,*6E
$GPRMC,133135.231,A,2459.2810,N,12127.8688,E,7.71,330.64,270917,,,A*69
$GPGGA,133220.220,2459.4524,N,12127.8678,E,1,5,2.36,76.6,M,15.2,M,,*65
$GPRMC,133220.220,A,2459.4524,N,12127.8678,E,2.02,305.28,270917,,,A*62
$GPGGA,133254.216,2459.3228,N,12127.7021,E,1,5,1.61,13.6,M,15.2,M,,*68
$GPRMC,133254.216,A,2459.3228,N,12127.7021,E,16.90,281.96,270917,,,A*5B
$GPGGA,133335.193,2459.4398,N,12127.6090,E,1,6,1.42,4.9,M,15.2,M,,*5D
$GPRMC,133335.193,A,2459.4398,N,12127.6090,E,5.10,306.64,270917,,,A*6C
$GPGGA,133412.198,2459.5097,N,12127.4386,E,1,6,1.42,22.4,M,15.2,M,,*66
$GPRMC,133412.198,A,2459.5097,N,12127.4386,E,21.44,266.88,270917,,,A*5C
$GPGGA,133449.191,2459.6206,N,12127.3090,E,1,6,1.46,27.3,M,15.2,M,,*6D
$GPRMC,133449.191,A,2459.6206,N,12127.3090,E,4.93,345.95,270917,,,A*60
$GPGGA,133547.070,2459.6760,N,12127.2692,E,1,5,2.25,15.6,M,15.2,M,,*6D
$GPRMC,133547.070,A,2459.6760,N,12127.2692,E,2.31,57.99,270917,,,A*53
$GPGGA,133700.134,2459.6266,N,12127.2408,E,1,5,1.47,-94.3,M,15.2,M,,*49
$GPRMC,133700.134,A,2459.6266,N,12127.2408,E,0.55,176.70,270917,,,A*64
$GPGGA,133744.167,2459.6179,N,12127.2734,E,1,5,1.47,-82.5,M,15.2,M,,*4F
$GPRMC,133744.167,A,2459.6179,N,12127.2734,E,0.32,112.74,270917,,,A*64
$GPGGA,133832.159,2459.6197,N,12127.2747,E,1,5,1.61,-13.5,M,15.2,M,,*44
$GPRMC,133832.159,A,2459.6197,N,12127.2747,E,2.79,217.14,270917,,,A*6E
$GPGGA,133919.000,2459.6285,N,12127.2700,E,1,5,1.62,21.6,M,15.2,M,,*6E
$GPRMC,133919.000,A,2459.6285,N,12127.2700,E,2.44,205.25,270917,,,A*67
$GPGGA,134005.144,2459.6270,N,12127.2642,E,1,4,2.35,-28.3,M,15.2,M,,*40
$GPRMC,134005.144,A,2459.6270,N,12127.2642,E,2.84,192.18,270917,,,A*67
$GPGGA,134104.000,2459.6403,N,12127.2738,E,1,4,2.33,-79.7,M,15.2,M,,*49
$GPRMC,134104.000,A,2459.6403,N,12127.2738,E,1.46,253.02,270917,,,A*60
$GPGGA,134216.113,2459.6419,N,12127.2677,E,1,5,2.10,113.6,M,15.2,M,,*5A
$GPRMC,134216.113,A,2459.6419,N,12127.2677,E,0.67,128.12,270917,,,A*6E
$GPGGA,134418.115,2459.6427,N,12127.2771,E,1,5,1.45,105.4,M,15.2,M,,*58
$GPRMC,134418.115,A,2459.6427,N,12127.2771,E,2.94,241.34,270917,,,A*6C
$GPGGA,134503.095,2459.6357,N,12127.2541,E,1,4,2.28,53.9,M,15.2,M,,*6D
$GPRMC,134503.095,A,2459.6357,N,12127.2541,E,4.54,297.46,270917,,,A*6B
$GPGGA,134611.087,2459.6382,N,12127.2420,E,1,4,2.13,95.1,M,15.2,M,,*6A
$GPRMC,134611.087,A,2459.6382,N,12127.2420,E,0.17,158.87,270917,,,A*68
$GPGGA,134758.076,2459.6383,N,12127.2535,E,1,4,5.17,74.7,M,15.2,M,,*66
$GPRMC,134758.076,A,2459.6383,N,12127.2535,E,0.21,179.79,270917,,,A*69
$GPGGA,134853.059,2459.6340,N,12127.2811,E,1,4,2.25,0.2,M,15.2,M,,*5B
$GPRMC,134853.059,A,2459.6340,N,12127.2811,E,4.15,92.77,270917,,,A*5D
$GPGGA,135118.011,2459.6463,N,12127.2550,E,1,4,1.83,73.5,M,15.2,M,,*62
$GPRMC,135118.011,A,2459.6463,N,12127.2550,E,0.62,159.45,270917,,,A*6B
