$GPGGA,084416.305,2500.3547,N,12128.5622,E,1,4,1.43,63.5,M,15.2,M,,*68
$GPRMC,084416.305,A,2500.3547,N,12128.5622,E,1.68,3.05,021017,,,A*62
$GPGGA,093159.000,2459.4139,N,12127.4004,E,1,3,4.59,5.5,M,15.2,M,,*54
$GPRMC,093159.000,A,2459.4139,N,12127.4004,E,0.61,40.93,021017,,,A*57
$GPGGA,100804.290,2459.6010,N,12127.4349,E,1,5,1.74,47.4,M,15.2,M,,*6C
$GPRMC,100804.290,A,2459.6010,N,12127.4349,E,0.50,232.32,021017,,,A*6A
$GPGGA,101955.000,2459.5767,N,12127.4177,E,1,4,2.80,133.2,M,15.2,M,,*55
$GPRMC,101955.000,A,2459.5767,N,12127.4177,E,0.42,174.89,021017,,,A*6C
$GPGGA,102324.000,2459.6027,N,12127.4364,E,1,3,2.41,134.9,M,15.2,M,,*5C
$GPRMC,102324.000,A,2459.6027,N,12127.4364,E,0.47,136.07,021017,,,A*66
$GPGGA,103448.000,2459.5942,N,12127.4427,E,1,3,2.20,134.9,M,15.2,M,,*5E
$GPRMC,103448.000,A,2459.5942,N,12127.4427,E,0.23,200.22,021017,,,A*60
$GPGGA,104249.000,2459.6416,N,12127.3693,E,1,4,2.23,236.8,M,15.2,M,,*5F
$GPRMC,104249.000,A,2459.6416,N,12127.3693,E,6.36,310.33,021017,,,A*67
$GPGGA,104647.000,2459.5771,N,12127.4273,E,1,5,1.62,28.2,M,15.2,M,,*69
$GPRMC,104647.000,A,2459.5771,N,12127.4273,E,0.85,268.62,021017,,,A*65
$GPGGA,105411.000,2459.5864,N,12127.4332,E,1,6,1.34,35.2,M,15.2,M,,*6A
$GPRMC,105411.000,A,2459.5864,N,12127.4332,E,0.78,239.70,021017,,,A*6F
$GPGGA,105736.000,2459.5769,N,12127.4244,E,1,5,2.07,10.4,M,15.2,M,,*6F
$GPRMC,105736.000,A,2459.5769,N,12127.4244,E,1.07,348.78,021017,,,A*6D
$GPGGA,110109.089,2459.5881,N,12127.4331,E,1,4,2.13,28.6,M,15.2,M,,*67
$GPRMC,110109.089,A,2459.5881,N,12127.4331,E,0.72,155.51,021017,,,A*6E
$GPGGA,110449.296,2459.5918,N,12127.4364,E,1,5,1.45,17.5,M,15.2,M,,*65
$GPRMC,110449.296,A,2459.5918,N,12127.4364,E,0.46,236.63,021017,,,A*62
$GPGGA,110805.000,2459.5775,N,12127.4274,E,1,5,1.81,52.5,M,15.2,M,,*60
$GPRMC,110805.000,A,2459.5775,N,12127.4274,E,0.23,111.13,021017,,,A*6C
$GPGGA,111123.302,2459.5848,N,12127.4356,E,1,6,1.34,23.5,M,15.2,M,,*66
$GPRMC,111123.302,A,2459.5848,N,12127.4356,E,0.24,276.49,021017,,,A*6B
$GPGGA,112257.089,2459.6333,N,12127.2606,E,1,4,2.13,57.6,M,15.2,M,,*63
$GPRMC,112257.089,A,2459.6333,N,12127.2606,E,2.17,270.66,021017,,,A*63
$GPGGA,112641.000,2459.5845,N,12127.2804,E,1,5,1.43,272.4,M,15.2,M,,*54
$GPRMC,112641.000,A,2459.5845,N,12127.2804,E,0.44,289.56,021017,,,A*65
$GPGGA,112959.000,2459.6250,N,12127.2759,E,1,6,1.23,81.1,M,15.2,M,,*66
$GPRMC,112959.000,A,2459.6250,N,12127.2759,E,0.55,96.34,021017,,,A*51
$GPGGA,113323.303,2459.6309,N,12127.2735,E,1,6,1.22,48.2,M,15.2,M,,*60
$GPRMC,113323.303,A,2459.6309,N,12127.2735,E,0.41,333.51,021017,,,A*6A
$GPGGA,113641.000,2459.6369,N,12127.2754,E,1,6,1.21,28.1,M,15.2,M,,*66
$GPRMC,113641.000,A,2459.6369,N,12127.2754,E,0.67,33.37,021017,,,A*5D
$GPGGA,114425.000,2459.6116,N,12127.2512,E,1,4,3.95,34.2,M,15.2,M,,*6A
$GPRMC,114425.000,A,2459.6116,N,12127.2512,E,0.87,92.85,021017,,,A*5C
$GPGGA,115622.000,2459.6656,N,12127.3398,E,1,4,6.87,52.5,M,15.2,M,,*69
$GPRMC,115622.000,A,2459.6656,N,12127.3398,E,4.02,53.83,021017,,,A*5C
$GPGGA,120011.000,2459.6397,N,12127.2787,E,1,5,1.78,16.1,M,15.2,M,,*68
$GPRMC,120011.000,A,2459.6397,N,12127.2787,E,1.26,38.92,021017,,,A*51
$GPGGA,121150.085,2459.6269,N,12127.2742,E,1,4,2.30,93.7,M,15.2,M,,*6C
$GPRMC,121150.085,A,2459.6269,N,12127.2742,E,0.63,284.10,021017,,,A*6F
$GPGGA,123930.000,2459.6929,N,12127.3286,E,1,3,7.65,134.8,M,15.2,M,,*5F
$GPRMC,123930.000,A,2459.6929,N,12127.3286,E,0.64,347.86,021017,,,A*6B
$GPGGA,124254.000,2459.6529,N,12127.2844,E,1,3,6.68,134.9,M,15.2,M,,*55
$GPRMC,124254.000,A,2459.6529,N,12127.2844,E,0.19,219.84,021017,,,A*6E
$GPGGA,124618.000,2459.6539,N,12127.3036,E,1,3,5.91,134.9,M,15.2,M,,*51
$GPRMC,124618.000,A,2459.6539,N,12127.3036,E,0.38,314.52,021017,,,A*6B
$GPGGA,124936.000,2459.6228,N,12127.2671,E,1,3,5.32,64.7,M,15.2,M,,*62
$GPRMC,124936.000,A,2459.6228,N,12127.2671,E,1.25,224.63,021017,,,A*66
$GPGGA,125312.000,2459.6301,N,12127.2859,E,1,3,4.80,134.8,M,15.2,M,,*52
$GPRMC,125312.000,A,2459.6301,N,12127.2859,E,0.55,96.44,021017,,,A*5D
$GPGGA,130050.084,2459.5255,N,12127.3432,E,1,4,1.76,23.6,M,15.2,M,,*6E
$GPRMC,130050.084,A,2459.5255,N,12127.3432,E,0.76,84.69,021017,,,A*5E
$GPGGA,131217.092,2459.5215,N,12127.3456,E,1,5,1.61,-9.6,M,15.2,M,,*7D
$GPRMC,131217.092,A,2459.5215,N,12127.3456,E,2.07,80.71,021017,,,A*56
$GPGGA,131953.000,2458.7541,N,12126.8962,E,1,6,1.68,27.9,M,15.2,M,,*6C
$GPRMC,131953.000,A,2458.7541,N,12126.8962,E,15.05,232.52,021017,,,A*5D
$GPGGA,132723.000,2458.2283,N,12126.5515,E,1,4,2.26,39.2,M,15.2,M,,*64
$GPRMC,132723.000,A,2458.2283,N,12126.5515,E,1.98,65.24,021017,,,A*5A
$GPGGA,133104.000,2458.2298,N,12126.5210,E,1,3,2.74,98.1,M,15.2,M,,*66
$GPRMC,133104.000,A,2458.2298,N,12126.5210,E,1.12,161.08,021017,,,A*69
$GPGGA,133421.302,2458.2258,N,12126.5319,E,1,4,2.04,33.0,M,15.2,M,,*61
$GPRMC,133421.302,A,2458.2258,N,12126.5319,E,0.49,84.16,021017,,,A*54
$GPGGA,133735.000,2458.1970,N,12126.5045,E,1,6,1.13,38.8,M,15.2,M,,*6A
$GPRMC,133735.000,A,2458.1970,N,12126.5045,E,0.51,59.29,021017,,,A*5E
$GPGGA,134057.168,2458.2206,N,12126.5365,E,1,5,1.34,3.7,M,15.2,M,,*58
$GPRMC,134057.168,A,2458.2206,N,12126.5365,E,0.82,35.17,021017,,,A*54
$GPGGA,134422.094,2458.2147,N,12126.5229,E,1,7,1.08,-28.1,M,15.2,M,,*4C
$GPRMC,134422.094,A,2458.2147,N,12126.5229,E,0.43,77.05,021017,,,A*57
$GPGGA,134748.000,2458.2210,N,12126.5299,E,1,6,1.21,33.7,M,15.2,M,,*6F
$GPRMC,134748.000,A,2458.2210,N,12126.5299,E,1.05,52.99,021017,,,A*5E
$GPGGA,135104.096,2458.2264,N,12126.5317,E,1,5,1.33,2.1,M,15.2,M,,*5F
$GPRMC,135104.096,A,2458.2264,N,12126.5317,E,0.74,142.24,021017,,,A*6B
$GPGGA,135427.083,2458.2283,N,12126.5353,E,1,4,2.04,-36.8,M,15.2,M,,*43
$GPRMC,135427.083,A,2458.2283,N,12126.5353,E,0.59,205.34,021017,,,A*6C
$GPGGA,135800.088,2458.2255,N,12126.5430,E,1,4,2.59,-48.9,M,15.2,M,,*48
$GPRMC,135800.088,A,2458.2255,N,12126.5430,E,0.24,284.82,021017,,,A*69
$GPGGA,140117.086,2458.2351,N,12126.5401,E,1,6,1.32,-61.9,M,15.2,M,,*4B
$GPRMC,140117.086,A,2458.2351,N,12126.5401,E,1.08,236.43,021017,,,A*66
$GPGGA,140435.000,2458.2273,N,12126.5319,E,1,7,1.06,21.3,M,15.2,M,,*6A
$GPRMC,140435.000,A,2458.2273,N,12126.5319,E,0.38,284.43,021017,,,A*69
$GPGGA,140753.000,2458.2303,N,12126.5344,E,1,5,1.35,23.0,M,15.2,M,,*64
$GPRMC,140753.000,A,2458.2303,N,12126.5344,E,0.69,72.96,021017,,,A*53
$GPGGA,141110.093,2458.2283,N,12126.5363,E,1,6,1.28,-2.3,M,15.2,M,,*70
$GPRMC,141110.093,A,2458.2283,N,12126.5363,E,0.22,199.16,021017,,,A*66
$GPGGA,141430.096,2458.2278,N,12126.5361,E,1,5,1.58,21.2,M,15.2,M,,*6D
$GPRMC,141430.096,A,2458.2278,N,12126.5361,E,0.42,217.71,021017,,,A*60
$GPGGA,141746.085,2458.2218,N,12126.5360,E,1,5,2.00,11.1,M,15.2,M,,*64
$GPRMC,141746.085,A,2458.2218,N,12126.5360,E,0.30,133.37,021017,,,A*65
$GPGGA,142105.000,2458.2239,N,12126.5368,E,1,5,1.24,44.8,M,15.2,M,,*6C
$GPRMC,142105.000,A,2458.2239,N,12126.5368,E,0.71,229.26,021017,,,A*6C
$GPGGA,142454.085,2458.2288,N,12126.5467,E,1,6,1.26,19.7,M,15.2,M,,*64
$GPRMC,142454.085,A,2458.2288,N,12126.5467,E,0.53,111.79,021017,,,A*60
$GPGGA,142832.097,2458.2271,N,12126.5318,E,1,9,0.95,41.4,M,15.2,M,,*6A
$GPRMC,142832.097,A,2458.2271,N,12126.5318,E,0.26,337.69,021017,,,A*63
$GPGGA,143152.304,2458.2464,N,12126.5224,E,1,7,1.17,-64.8,M,15.2,M,,*42
$GPRMC,143152.304,A,2458.2464,N,12126.5224,E,0.96,313.25,021017,,,A*6D
$GPGGA,143511.000,2458.2284,N,12126.5348,E,1,7,1.07,23.0,M,15.2,M,,*62
$GPRMC,143511.000,A,2458.2284,N,12126.5348,E,0.18,150.61,021017,,,A*69
$GPGGA,143828.000,2458.2302,N,12126.5373,E,1,7,1.08,-5.6,M,15.2,M,,*72
$GPRMC,143828.000,A,2458.2302,N,12126.5373,E,0.65,120.32,021017,,,A*62
$GPGGA,144146.000,2458.2320,N,12126.5408,E,1,6,1.20,9.3,M,15.2,M,,*50
$GPRMC,144146.000,A,2458.2320,N,12126.5408,E,0.22,244.28,021017,,,A*66
$GPGGA,144507.092,2458.2320,N,12126.5427,E,1,7,1.13,-6.9,M,15.2,M,,*7E
$GPRMC,144507.092,A,2458.2320,N,12126.5427,E,0.25,101.63,021017,,,A*6B
$GPGGA,144823.000,2458.2273,N,12126.5424,E,1,7,1.14,39.8,M,15.2,M,,*6D
$GPRMC,144823.000,A,2458.2273,N,12126.5424,E,1.08,310.61,021017,,,A*61
$GPGGA,145139.092,2458.2270,N,12126.5416,E,1,7,1.07,38.4,M,15.2,M,,*68
$GPRMC,145139.092,A,2458.2270,N,12126.5416,E,0.33,53.08,021017,,,A*59
$GPGGA,145456.097,2458.2310,N,12126.5416,E,1,6,1.16,35.9,M,15.2,M,,*67
$GPRMC,145456.097,A,2458.2310,N,12126.5416,E,0.82,310.87,021017,,,A*6E
$GPGGA,145817.000,2458.2267,N,12126.5499,E,1,7,1.33,77.4,M,15.2,M,,*6B
$GPRMC,145817.000,A,2458.2267,N,12126.5499,E,1.74,329.57,021017,,,A*60
$GPGGA,150137.087,2458.2368,N,12126.5320,E,1,8,1.09,57.3,M,15.2,M,,*63
$GPRMC,150137.087,A,2458.2368,N,12126.5320,E,0.16,32.77,021017,,,A*55
$GPGGA,150453.091,2458.2327,N,12126.5390,E,1,7,1.19,53.7,M,15.2,M,,*6D
$GPRMC,150453.091,A,2458.2327,N,12126.5390,E,0.04,265.90,021017,,,A*6F
$GPGGA,150810.000,2458.2247,N,12126.5339,E,1,8,1.11,36.8,M,15.2,M,,*61
$GPRMC,150810.000,A,2458.2247,N,12126.5339,E,0.62,49.52,021017,,,A*5A
$GPGGA,151130.094,2458.2241,N,12126.5474,E,1,6,1.55,28.5,M,15.2,M,,*62
$GPRMC,151130.094,A,2458.2241,N,12126.5474,E,0.30,151.98,021017,,,A*6C
$GPGGA,151446.237,2458.2326,N,12126.5359,E,1,5,1.96,33.7,M,15.2,M,,*61
$GPRMC,151446.237,A,2458.2326,N,12126.5359,E,0.20,72.03,021017,,,A*58
$GPGGA,151805.089,2458.2221,N,12126.5468,E,1,5,1.96,38.6,M,15.2,M,,*64
$GPRMC,151805.089,A,2458.2221,N,12126.5468,E,0.68,245.02,021017,,,A*6C
$GPGGA,152127.304,2458.2237,N,12126.5461,E,1,4,1.95,28.2,M,15.2,M,,*61
$GPRMC,152127.304,A,2458.2237,N,12126.5461,E,0.87,124.47,021017,,,A*6A
$GPGGA,152450.098,2458.2281,N,12126.5356,E,1,5,1.54,40.6,M,15.2,M,,*6A
$GPRMC,152450.098,A,2458.2281,N,12126.5356,E,0.52,348.64,021017,,,A*66
$GPGGA,152831.302,2458.2230,N,12126.5461,E,1,5,1.58,13.1,M,15.2,M,,*65
$GPRMC,152831.302,A,2458.2230,N,12126.5461,E,0.34,54.05,021017,,,A*5D
$GPGGA,153145.305,2458.2233,N,12126.5423,E,1,6,1.45,14.9,M,15.2,M,,*6C
$GPRMC,153145.305,A,2458.2233,N,12126.5423,E,0.60,90.51,021017,,,A*5C
$GPGGA,153503.094,2458.2273,N,12126.5384,E,1,7,1.26,25.1,M,15.2,M,,*61
$GPRMC,153503.094,A,2458.2273,N,12126.5384,E,0.30,351.04,021017,,,A*64
$GPGGA,153820.309,2458.2307,N,12126.5397,E,1,7,1.26,34.8,M,15.2,M,,*63
$GPRMC,153820.309,A,2458.2307,N,12126.5397,E,0.19,272.13,021017,,,A*62
$GPGGA,154134.087,2458.2287,N,12126.5487,E,1,6,1.47,-25.8,M,15.2,M,,*49
$GPRMC,154134.087,A,2458.2287,N,12126.5487,E,0.43,298.79,021017,,,A*64
$GPGGA,154451.097,2458.2271,N,12126.5441,E,1,6,1.47,3.2,M,15.2,M,,*5E
$GPRMC,154451.097,A,2458.2271,N,12126.5441,E,0.17,167.46,021017,,,A*6E
$GPGGA,154805.000,2458.2262,N,12126.5327,E,1,8,1.17,44.7,M,15.2,M,,*65
$GPRMC,154805.000,A,2458.2262,N,12126.5327,E,0.73,265.91,021017,,,A*61
$GPGGA,155123.000,2458.2266,N,12126.5390,E,1,8,1.16,28.4,M,15.2,M,,*69
$GPRMC,155123.000,A,2458.2266,N,12126.5390,E,1.03,74.62,021017,,,A*5D
$GPGGA,155439.097,2458.2278,N,12126.5420,E,1,4,2.00,21.3,M,15.2,M,,*6C
$GPRMC,155439.097,A,2458.2278,N,12126.5420,E,0.56,244.42,021017,,,A*6C
$GPGGA,155757.089,2458.2268,N,12126.5413,E,1,6,1.48,30.0,M,15.2,M,,*67
$GPRMC,155757.089,A,2458.2268,N,12126.5413,E,0.35,154.11,021017,,,A*68
$GPGGA,160115.092,2458.2278,N,12126.5454,E,1,6,1.48,-30.4,M,15.2,M,,*40
$GPRMC,160115.092,A,2458.2278,N,12126.5454,E,0.38,180.85,021017,,,A*6F
$GPGGA,160427.301,2458.2258,N,12126.5453,E,1,6,1.48,-4.3,M,15.2,M,,*78
$GPRMC,160427.301,A,2458.2258,N,12126.5453,E,0.57,56.30,021017,,,A*5A
$GPGGA,160745.293,2458.2230,N,12126.5450,E,1,5,2.58,-5.0,M,15.2,M,,*7B
$GPRMC,160745.293,A,2458.2230,N,12126.5450,E,0.10,159.59,021017,,,A*68
$GPGGA,161102.305,2458.2243,N,12126.5358,E,1,5,1.49,34.1,M,15.2,M,,*67
$GPRMC,161102.305,A,2458.2243,N,12126.5358,E,0.59,94.74,021017,,,A*5B
$GPGGA,161417.000,2458.2310,N,12126.5458,E,1,7,1.36,7.4,M,15.2,M,,*5F
$GPRMC,161417.000,A,2458.2310,N,12126.5458,E,0.86,208.97,021017,,,A*64
$GPGGA,161733.091,2458.2299,N,12126.5415,E,1,5,1.48,14.8,M,15.2,M,,*6E
$GPRMC,161733.091,A,2458.2299,N,12126.5415,E,0.41,41.02,021017,,,A*58
$GPGGA,162052.095,2458.2195,N,12126.5388,E,1,6,1.44,38.5,M,15.2,M,,*69
$GPRMC,162052.095,A,2458.2195,N,12126.5388,E,1.23,314.05,021017,,,A*62
$GPGGA,162411.000,2458.2346,N,12126.5287,E,1,6,1.36,95.5,M,15.2,M,,*66
$GPRMC,162411.000,A,2458.2346,N,12126.5287,E,1.12,333.17,021017,,,A*6B
$GPGGA,162728.000,2458.2258,N,12126.5385,E,1,7,1.33,43.0,M,15.2,M,,*68
$GPRMC,162728.000,A,2458.2258,N,12126.5385,E,0.68,214.79,021017,,,A*6F
$GPGGA,163044.299,2458.2324,N,12126.5290,E,1,6,1.41,130.0,M,15.2,M,,*58
$GPRMC,163044.299,A,2458.2324,N,12126.5290,E,0.26,235.73,021017,,,A*6D
$GPGGA,163357.089,2458.2229,N,12126.5388,E,1,6,1.40,13.3,M,15.2,M,,*6C
$GPRMC,163357.089,A,2458.2229,N,12126.5388,E,0.40,245.52,021017,,,A*6F
$GPGGA,163715.086,2458.2228,N,12126.5341,E,1,5,1.56,34.6,M,15.2,M,,*61
$GPRMC,163715.086,A,2458.2228,N,12126.5341,E,0.20,287.26,021017,,,A*6D
$GPGGA,164033.086,2458.2275,N,12126.5388,E,1,5,1.56,11.9,M,15.2,M,,*60
$GPRMC,164033.086,A,2458.2275,N,12126.5388,E,0.21,24.67,021017,,,A*5B
$GPGGA,164346.097,2458.2228,N,12126.5392,E,1,7,1.26,24.4,M,15.2,M,,*6C
$GPRMC,164346.097,A,2458.2228,N,12126.5392,E,0.46,147.52,021017,,,A*6A
$GPGGA,164702.302,2458.2169,N,12126.5329,E,1,6,1.96,30.7,M,15.2,M,,*6D
$GPRMC,164702.302,A,2458.2169,N,12126.5329,E,0.25,111.90,021017,,,A*6F
$GPGGA,165015.280,2458.2129,N,12126.5304,E,1,5,3.75,41.4,M,15.2,M,,*64
$GPRMC,165015.280,A,2458.2129,N,12126.5304,E,0.79,16.34,021017,,,A*5E
$GPGGA,165329.000,2458.2134,N,12126.5313,E,1,6,1.80,47.1,M,15.2,M,,*60
$GPRMC,165329.000,A,2458.2134,N,12126.5313,E,0.16,258.14,021017,,,A*61
$GPGGA,165648.221,2458.1980,N,12126.5190,E,1,7,1.19,54.7,M,15.2,M,,*6B
$GPRMC,165648.221,A,2458.1980,N,12126.5190,E,0.45,13.21,021017,,,A*52
$GPGGA,170005.000,2458.2141,N,12126.5300,E,1,8,0.93,41.6,M,15.2,M,,*65
$GPRMC,170005.000,A,2458.2141,N,12126.5300,E,0.25,14.51,021017,,,A*53
$GPGGA,170321.154,2458.2176,N,12126.5375,E,1,5,1.61,30.1,M,15.2,M,,*66
$GPRMC,170321.154,A,2458.2176,N,12126.5375,E,0.18,354.75,021017,,,A*6F
$GPGGA,170635.000,2458.1911,N,12126.5065,E,1,6,1.34,132.6,M,15.2,M,,*59
$GPRMC,170635.000,A,2458.1911,N,12126.5065,E,0.04,145.24,021017,,,A*6C
$GPGGA,170954.000,2458.2182,N,12126.5325,E,1,7,1.19,49.4,M,15.2,M,,*66
$GPRMC,170954.000,A,2458.2182,N,12126.5325,E,0.55,33.56,021017,,,A*53
$GPGGA,171308.309,2458.2217,N,12126.5377,E,1,6,1.44,34.6,M,15.2,M,,*67
$GPRMC,171308.309,A,2458.2217,N,12126.5377,E,0.91,39.25,021017,,,A*55
$GPGGA,171629.000,2458.2253,N,12126.5433,E,1,9,0.84,10.8,M,15.2,M,,*66
$GPRMC,171629.000,A,2458.2253,N,12126.5433,E,0.46,225.96,021017,,,A*63
$GPGGA,171945.302,2458.2204,N,12126.5379,E,1,5,1.60,33.2,M,15.2,M,,*65
$GPRMC,171945.302,A,2458.2204,N,12126.5379,E,0.93,229.50,021017,,,A*62
$GPGGA,172326.309,2458.2039,N,12126.5171,E,1,8,0.97,76.1,M,15.2,M,,*62
$GPRMC,172326.309,A,2458.2039,N,12126.5171,E,0.83,42.03,021017,,,A*5B
$GPGGA,172651.098,2458.1904,N,12126.5090,E,1,5,1.32,176.1,M,15.2,M,,*54
$GPRMC,172651.098,A,2458.1904,N,12126.5090,E,1.57,51.50,021017,,,A*53
$GPGGA,173008.095,2458.2206,N,12126.5355,E,1,5,1.46,41.5,M,15.2,M,,*60
$GPRMC,173008.095,A,2458.2206,N,12126.5355,E,0.88,60.61,021017,,,A*56
$GPGGA,173323.000,2458.2001,N,12126.5214,E,1,6,1.23,133.0,M,15.2,M,,*56
$GPRMC,173323.000,A,2458.2001,N,12126.5214,E,0.54,221.48,021017,,,A*6C
$GPGGA,173639.099,2458.2211,N,12126.5346,E,1,5,1.36,38.3,M,15.2,M,,*63
$GPRMC,173639.099,A,2458.2211,N,12126.5346,E,0.37,221.78,021017,,,A*61
$GPGGA,173956.307,2458.2245,N,12126.5382,E,1,5,1.34,20.7,M,15.2,M,,*67
$GPRMC,173956.307,A,2458.2245,N,12126.5382,E,0.49,189.54,021017,,,A*6C
$GPGGA,174310.101,2458.2223,N,12126.5363,E,1,5,1.32,28.5,M,15.2,M,,*6F
$GPRMC,174310.101,A,2458.2223,N,12126.5363,E,0.46,273.34,021017,,,A*67
$GPGGA,174629.000,2458.2051,N,12126.5589,E,1,4,3.62,38.6,M,15.2,M,,*61
$GPRMC,174629.000,A,2458.2051,N,12126.5589,E,0.90,283.27,021017,,,A*6B
$GPGGA,175003.000,2458.1709,N,12126.4710,E,1,6,1.22,357.8,M,15.2,M,,*54
$GPRMC,175003.000,A,2458.1709,N,12126.4710,E,1.37,211.40,021017,,,A*68
$GPGGA,175329.000,2458.1879,N,12126.4989,E,1,7,0.94,271.8,M,15.2,M,,*51
$GPRMC,175329.000,A,2458.1879,N,12126.4989,E,0.35,200.40,021017,,,A*66
$GPGGA,175647.000,2458.1934,N,12126.5122,E,1,6,1.20,254.1,M,15.2,M,,*5D
$GPRMC,175647.000,A,2458.1934,N,12126.5122,E,0.17,195.25,021017,,,A*67
$GPGGA,180024.000,2458.2216,N,12126.5366,E,1,5,1.42,32.5,M,15.2,M,,*6F
$GPRMC,180024.000,A,2458.2216,N,12126.5366,E,0.26,70.83,021017,,,A*50
$GPGGA,180345.094,2458.2248,N,12126.5343,E,1,5,1.35,41.3,M,15.2,M,,*68
$GPRMC,180345.094,A,2458.2248,N,12126.5343,E,0.09,10.65,021017,,,A*56
$GPGGA,180744.093,2458.3049,N,12126.5084,E,1,6,2.35,145.2,M,15.2,M,,*54
$GPRMC,180744.093,A,2458.3049,N,12126.5084,E,1.14,351.10,021017,,,A*67
$GPGGA,181102.309,2458.2157,N,12126.5338,E,1,5,2.36,16.7,M,15.2,M,,*68
$GPRMC,181102.309,A,2458.2157,N,12126.5338,E,0.32,61.10,021017,,,A*5C
$GPGGA,181424.094,2458.2230,N,12126.5310,E,1,5,1.48,48.2,M,15.2,M,,*62
$GPRMC,181424.094,A,2458.2230,N,12126.5310,E,0.46,163.45,021017,,,A*62
$GPGGA,181757.000,2458.2095,N,12126.5224,E,1,8,0.97,79.8,M,15.2,M,,*65
$GPRMC,181757.000,A,2458.2095,N,12126.5224,E,0.33,352.74,021017,,,A*63
$GPGGA,182127.300,2458.2402,N,12126.5451,E,1,6,1.23,78.9,M,15.2,M,,*6A
$GPRMC,182127.300,A,2458.2402,N,12126.5451,E,0.37,352.50,021017,,,A*6E
$GPGGA,182444.092,2458.2211,N,12126.5357,E,1,5,1.90,49.6,M,15.2,M,,*61
$GPRMC,182444.092,A,2458.2211,N,12126.5357,E,0.34,319.05,021017,,,A*6F
$GPGGA,182821.000,2458.2293,N,12126.5421,E,1,6,1.65,109.3,M,15.2,M,,*50
$GPRMC,182821.000,A,2458.2293,N,12126.5421,E,0.21,281.10,021017,,,A*67
$GPGGA,183139.269,2458.2226,N,12126.5372,E,1,5,1.73,35.7,M,15.2,M,,*6D
$GPRMC,183139.269,A,2458.2226,N,12126.5372,E,0.02,1.05,021017,,,A*6B
$GPGGA,183457.227,2458.2195,N,12126.5381,E,1,6,1.52,26.4,M,15.2,M,,*6C
$GPRMC,183457.227,A,2458.2195,N,12126.5381,E,0.16,254.80,021017,,,A*61
$GPGGA,183811.000,2458.2200,N,12126.5385,E,1,5,1.60,35.2,M,15.2,M,,*68
$GPRMC,183811.000,A,2458.2200,N,12126.5385,E,0.57,190.22,021017,,,A*65
$GPGGA,184146.167,2458.2218,N,12126.5409,E,1,6,1.41,39.5,M,15.2,M,,*65
$GPRMC,184146.167,A,2458.2218,N,12126.5409,E,0.12,225.90,021017,,,A*66
$GPGGA,184525.092,2458.2261,N,12126.5396,E,1,8,1.06,22.0,M,15.2,M,,*62
$GPRMC,184525.092,A,2458.2261,N,12126.5396,E,0.06,249.64,021017,,,A*67
$GPGGA,184838.102,2458.2251,N,12126.5382,E,1,6,1.33,21.8,M,15.2,M,,*6E
$GPRMC,184838.102,A,2458.2251,N,12126.5382,E,0.09,329.50,021017,,,A*67
$GPGGA,185153.000,2458.2250,N,12126.5382,E,1,7,1.14,24.9,M,15.2,M,,*69
$GPRMC,185153.000,A,2458.2250,N,12126.5382,E,0.76,222.32,021017,,,A*66
$GPGGA,185508.089,2458.2248,N,12126.5411,E,1,6,1.33,10.9,M,15.2,M,,*65
$GPRMC,185508.089,A,2458.2248,N,12126.5411,E,0.31,194.73,021017,,,A*61
$GPGGA,185821.300,2458.2244,N,12126.5328,E,1,5,1.85,49.0,M,15.2,M,,*6B
$GPRMC,185821.300,A,2458.2244,N,12126.5328,E,0.93,172.33,021017,,,A*60
$GPGGA,190133.091,2458.2314,N,12126.5298,E,1,5,1.89,51.4,M,15.2,M,,*61
$GPRMC,190133.091,A,2458.2314,N,12126.5298,E,0.58,138.74,021017,,,A*61
$GPGGA,190445.087,2458.2270,N,12126.5372,E,1,5,1.93,32.0,M,15.2,M,,*6E
$GPRMC,190445.087,A,2458.2270,N,12126.5372,E,1.35,317.06,021017,,,A*64
$GPGGA,190757.093,2458.2264,N,12126.5366,E,1,4,3.30,-0.2,M,15.2,M,,*7F
$GPRMC,190757.093,A,2458.2264,N,12126.5366,E,0.76,106.55,021017,,,A*63
$GPGGA,191111.000,2458.2227,N,12126.5435,E,1,7,1.20,18.3,M,15.2,M,,*63
$GPRMC,191111.000,A,2458.2227,N,12126.5435,E,0.21,95.42,021017,,,A*55
$GPGGA,191431.093,2458.2260,N,12126.5395,E,1,7,1.19,21.8,M,15.2,M,,*6B
$GPRMC,191431.093,A,2458.2260,N,12126.5395,E,0.10,320.06,021017,,,A*69
$GPGGA,191744.305,2458.2423,N,12126.5252,E,1,4,2.19,134.7,M,15.2,M,,*57
$GPRMC,191744.305,A,2458.2423,N,12126.5252,E,0.28,231.33,021017,,,A*63
$GPGGA,192057.093,2458.2232,N,12126.5428,E,1,5,1.80,28.6,M,15.2,M,,*6F
$GPRMC,192057.093,A,2458.2232,N,12126.5428,E,0.98,148.84,021017,,,A*6E
$GPGGA,192414.097,2458.2236,N,12126.5391,E,1,6,1.73,5.9,M,15.2,M,,*56
$GPRMC,192414.097,A,2458.2236,N,12126.5391,E,1.98,300.96,021017,,,A*64
$GPGGA,192729.000,2458.2168,N,12126.5399,E,1,6,1.43,44.9,M,15.2,M,,*63
$GPRMC,192729.000,A,2458.2168,N,12126.5399,E,0.41,130.90,021017,,,A*65
$GPGGA,193100.089,2458.2200,N,12126.5446,E,1,5,1.43,56.4,M,15.2,M,,*6B
$GPRMC,193100.089,A,2458.2200,N,12126.5446,E,0.18,243.63,021017,,,A*67
$GPGGA,193414.309,2458.2230,N,12126.5367,E,1,6,1.27,45.6,M,15.2,M,,*66
$GPRMC,193414.309,A,2458.2230,N,12126.5367,E,0.26,38.51,021017,,,A*59
$GPGGA,193731.095,2458.2208,N,12126.5318,E,1,6,1.54,65.4,M,15.2,M,,*63
$GPRMC,193731.095,A,2458.2208,N,12126.5318,E,0.53,159.46,021017,,,A*6A
$GPGGA,194045.303,2458.2225,N,12126.5396,E,1,5,1.72,4.2,M,15.2,M,,*53
$GPRMC,194045.303,A,2458.2225,N,12126.5396,E,0.19,10.21,021017,,,A*5F
$GPGGA,194359.000,2458.2180,N,12126.5364,E,1,8,0.93,44.0,M,15.2,M,,*69
$GPRMC,194359.000,A,2458.2180,N,12126.5364,E,0.55,208.67,021017,,,A*61
$GPGGA,194714.096,2458.2176,N,12126.5323,E,1,5,1.51,82.0,M,15.2,M,,*69
$GPRMC,194714.096,A,2458.2176,N,12126.5323,E,0.20,193.27,021017,,,A*6E
$GPGGA,195027.089,2458.2121,N,12126.5393,E,1,5,1.50,62.0,M,15.2,M,,*67
$GPRMC,195027.089,A,2458.2121,N,12126.5393,E,0.31,72.11,021017,,,A*54
$GPGGA,195341.000,2458.2233,N,12126.5301,E,1,6,1.49,84.2,M,15.2,M,,*6F
$GPRMC,195341.000,A,2458.2233,N,12126.5301,E,0.36,83.92,021017,,,A*5F
$GPGGA,195659.000,2458.2261,N,12126.5423,E,1,5,1.74,-3.4,M,15.2,M,,*7A
$GPRMC,195659.000,A,2458.2261,N,12126.5423,E,0.57,69.41,021017,,,A*5E
$GPGGA,200047.000,2458.2225,N,12126.5403,E,1,6,1.06,37.4,M,15.2,M,,*62
$GPRMC,200047.000,A,2458.2225,N,12126.5403,E,0.30,136.16,021017,,,A*62
$GPGGA,200402.306,2458.2235,N,12126.5429,E,1,5,1.55,-4.7,M,15.2,M,,*70
$GPRMC,200402.306,A,2458.2235,N,12126.5429,E,0.33,178.34,021017,,,A*62
$GPGGA,200717.000,2458.2266,N,12126.5355,E,1,5,1.49,43.9,M,15.2,M,,*65
$GPRMC,200717.000,A,2458.2266,N,12126.5355,E,0.38,169.48,021017,,,A*6A
$GPGGA,201036.260,2458.2270,N,12126.5271,E,1,6,1.48,69.5,M,15.2,M,,*62
$GPRMC,201036.260,A,2458.2270,N,12126.5271,E,0.30,262.80,021017,,,A*6F
$GPGGA,201350.229,2458.2239,N,12126.5465,E,1,5,1.85,-9.8,M,15.2,M,,*76
$GPRMC,201350.229,A,2458.2239,N,12126.5465,E,0.90,117.04,021017,,,A*68
$GPGGA,201704.202,2458.2259,N,12126.5478,E,1,6,1.49,-39.9,M,15.2,M,,*41
$GPRMC,201704.202,A,2458.2259,N,12126.5478,E,0.18,237.80,021017,,,A*63
$GPGGA,202023.000,2458.2230,N,12126.5405,E,1,5,1.75,-11.0,M,15.2,M,,*4A
$GPRMC,202023.000,A,2458.2230,N,12126.5405,E,0.07,238.09,021017,,,A*67
$GPGGA,202341.124,2458.2291,N,12126.5377,E,1,6,1.50,-7.1,M,15.2,M,,*71
$GPRMC,202341.124,A,2458.2291,N,12126.5377,E,0.53,18.28,021017,,,A*5C
$GPGGA,202700.102,2458.2253,N,12126.5356,E,1,6,1.51,9.1,M,15.2,M,,*5B
$GPRMC,202700.102,A,2458.2253,N,12126.5356,E,0.24,299.03,021017,,,A*66
$GPGGA,203017.000,2458.2277,N,12126.5393,E,1,6,1.52,-1.6,M,15.2,M,,*76
$GPRMC,203017.000,A,2458.2277,N,12126.5393,E,0.56,282.82,021017,,,A*6C
$GPGGA,203352.100,2458.2275,N,12126.5510,E,1,7,1.32,-23.9,M,15.2,M,,*42
$GPRMC,203352.100,A,2458.2275,N,12126.5510,E,0.16,78.14,021017,,,A*5C
$GPGGA,203714.310,2458.2084,N,12126.5417,E,1,5,1.45,89.1,M,15.2,M,,*6A
$GPRMC,203714.310,A,2458.2084,N,12126.5417,E,0.13,180.49,021017,,,A*68
$GPGGA,204029.000,2458.2191,N,12126.5453,E,1,7,1.30,37.5,M,15.2,M,,*62
$GPRMC,204029.000,A,2458.2191,N,12126.5453,E,0.94,274.05,021017,,,A*6E
$GPGGA,204356.305,2458.2304,N,12126.5321,E,1,4,1.72,-2.4,M,15.2,M,,*7C
$GPRMC,204356.305,A,2458.2304,N,12126.5321,E,0.54,309.07,021017,,,A*6A
$GPGGA,204724.305,2458.2255,N,12126.5383,E,1,6,1.41,-12.7,M,15.2,M,,*40
$GPRMC,204724.305,A,2458.2255,N,12126.5383,E,0.54,125.51,021017,,,A*69
$GPGGA,205045.096,2458.2159,N,12126.5479,E,1,6,1.41,21.9,M,15.2,M,,*66
$GPRMC,205045.096,A,2458.2159,N,12126.5479,E,0.43,340.38,021017,,,A*64
$GPGGA,205405.305,2458.2307,N,12126.5351,E,1,7,1.27,20.9,M,15.2,M,,*6B
$GPRMC,205405.305,A,2458.2307,N,12126.5351,E,0.13,218.43,021017,,,A*6C
$GPGGA,205724.087,2458.2353,N,12126.5318,E,1,6,1.63,10.7,M,15.2,M,,*62
$GPRMC,205724.087,A,2458.2353,N,12126.5318,E,1.86,312.53,021017,,,A*6E
$GPGGA,210047.000,2458.2164,N,12126.5414,E,1,8,1.00,26.4,M,15.2,M,,*6B
$GPRMC,210047.000,A,2458.2164,N,12126.5414,E,0.32,101.10,021017,,,A*63
$GPGGA,210405.000,2458.2295,N,12126.5360,E,1,9,0.83,2.2,M,15.2,M,,*5B
$GPRMC,210405.000,A,2458.2295,N,12126.5360,E,0.36,207.66,021017,,,A*68
$GPGGA,210720.091,2458.2037,N,12126.5281,E,1,4,1.96,134.7,M,15.2,M,,*5A
$GPRMC,210720.091,A,2458.2037,N,12126.5281,E,0.22,251.14,021017,,,A*63
$GPGGA,211035.000,2458.2208,N,12126.5395,E,1,7,1.09,39.5,M,15.2,M,,*61
$GPRMC,211035.000,A,2458.2208,N,12126.5395,E,0.46,299.17,021017,,,A*66
$GPGGA,211350.307,2458.2273,N,12126.4984,E,1,5,2.18,129.4,M,15.2,M,,*52
$GPRMC,211350.307,A,2458.2273,N,12126.4984,E,0.28,57.57,021017,,,A*59
$GPGGA,211702.301,2458.2239,N,12126.5038,E,1,5,2.19,128.7,M,15.2,M,,*55
$GPRMC,211702.301,A,2458.2239,N,12126.5038,E,0.37,130.19,021017,,,A*69
$GPGGA,212015.308,2458.2256,N,12126.5326,E,1,5,2.20,27.4,M,15.2,M,,*6C
$GPRMC,212015.308,A,2458.2256,N,12126.5326,E,0.31,21.28,021017,,,A*52
$GPGGA,212335.000,2458.2227,N,12126.5387,E,1,6,1.31,27.5,M,15.2,M,,*6A
$GPRMC,212335.000,A,2458.2227,N,12126.5387,E,0.41,105.02,021017,,,A*6D
$GPGGA,212652.097,2458.2220,N,12126.5415,E,1,7,1.04,28.2,M,15.2,M,,*64
$GPRMC,212652.097,A,2458.2220,N,12126.5415,E,0.18,289.58,021017,,,A*68
$GPGGA,213013.097,2458.2250,N,12126.5339,E,1,7,1.19,24.8,M,15.2,M,,*62
$GPRMC,213013.097,A,2458.2250,N,12126.5339,E,0.80,120.99,021017,,,A*68
$GPGGA,213348.000,2458.2254,N,12126.5311,E,1,3,3.69,22.3,M,15.2,M,,*63
$GPRMC,213348.000,A,2458.2254,N,12126.5311,E,0.07,314.30,021017,,,A*6C
$GPGGA,213719.085,2458.2292,N,12126.5337,E,1,7,1.17,41.2,M,15.2,M,,*6B
$GPRMC,213719.085,A,2458.2292,N,12126.5337,E,0.24,108.91,021017,,,A*6A
$GPGGA,214035.000,2458.2204,N,12126.5581,E,1,7,1.03,93.7,M,15.2,M,,*63
$GPRMC,214035.000,A,2458.2204,N,12126.5581,E,0.25,205.92,021017,,,A*61
$GPGGA,214351.303,2458.3931,N,12126.4974,E,1,4,2.40,670.6,M,15.2,M,,*54
$GPRMC,214351.303,A,2458.3931,N,12126.4974,E,4.50,345.20,021017,,,A*61
$GPGGA,214711.096,2458.2209,N,12126.5533,E,1,6,1.20,69.8,M,15.2,M,,*63
$GPRMC,214711.096,A,2458.2209,N,12126.5533,E,0.23,66.61,021017,,,A*56
$GPGGA,215031.253,2458.2147,N,12126.5605,E,1,6,1.32,74.2,M,15.2,M,,*66
$GPRMC,215031.253,A,2458.2147,N,12126.5605,E,0.60,158.52,021017,,,A*6D
$GPGGA,215356.300,2458.2245,N,12126.5632,E,1,4,2.52,134.7,M,15.2,M,,*51
$GPRMC,215356.300,A,2458.2245,N,12126.5632,E,0.52,158.20,021017,,,A*69
$GPGGA,215731.301,2458.2163,N,12126.5436,E,1,5,2.38,20.2,M,15.2,M,,*68
$GPRMC,215731.301,A,2458.2163,N,12126.5436,E,1.61,92.31,021017,,,A*5A
$GPGGA,220047.000,2458.2413,N,12126.5270,E,1,6,1.20,28.5,M,15.2,M,,*6A
$GPRMC,220047.000,A,2458.2413,N,12126.5270,E,0.76,258.03,021017,,,A*6C
$GPGGA,220405.000,2458.2507,N,12126.5230,E,1,7,1.08,33.8,M,15.2,M,,*64
$GPRMC,220405.000,A,2458.2507,N,12126.5230,E,0.90,351.05,021017,,,A*68
$GPGGA,220724.000,2458.2099,N,12126.5467,E,1,8,0.90,4.3,M,15.2,M,,*52
$GPRMC,220724.000,A,2458.2099,N,12126.5467,E,0.26,244.04,021017,,,A*67
$GPGGA,221041.000,2458.2154,N,12126.5446,E,1,6,1.21,21.2,M,15.2,M,,*67
$GPRMC,221041.000,A,2458.2154,N,12126.5446,E,0.75,188.21,021017,,,A*63
$GPGGA,221358.094,2458.2231,N,12126.5407,E,1,6,1.21,20.5,M,15.2,M,,*62
$GPRMC,221358.094,A,2458.2231,N,12126.5407,E,0.24,207.67,021017,,,A*62
$GPGGA,221720.096,2458.2201,N,12126.5447,E,1,6,1.22,9.3,M,15.2,M,,*52
$GPRMC,221720.096,A,2458.2201,N,12126.5447,E,0.80,212.11,021017,,,A*67
$GPGGA,222040.091,2458.2316,N,12126.5456,E,1,5,1.81,27.7,M,15.2,M,,*62
$GPRMC,222040.091,A,2458.2316,N,12126.5456,E,0.93,3.29,021017,,,A*6E
$GPGGA,222422.000,2458.2220,N,12126.5422,E,1,6,1.90,22.7,M,15.2,M,,*6B
$GPRMC,222422.000,A,2458.2220,N,12126.5422,E,0.88,33.35,021017,,,A*55
$GPGGA,222739.301,2458.2242,N,12126.5412,E,1,5,2.73,9.5,M,15.2,M,,*51
$GPRMC,222739.301,A,2458.2242,N,12126.5412,E,0.08,85.30,021017,,,A*59
$GPGGA,223059.305,2458.2259,N,12126.5420,E,1,6,2.16,28.3,M,15.2,M,,*6B
$GPRMC,223059.305,A,2458.2259,N,12126.5420,E,0.78,185.49,021017,,,A*6E
$GPGGA,223414.309,2458.2218,N,12126.5389,E,1,5,1.87,22.8,M,15.2,M,,*62
$GPRMC,223414.309,A,2458.2218,N,12126.5389,E,0.30,304.70,021017,,,A*63
$GPGGA,223728.088,2458.2168,N,12126.5467,E,1,5,2.27,5.1,M,15.2,M,,*52
$GPRMC,223728.088,A,2458.2168,N,12126.5467,E,0.76,104.92,021017,,,A*6A
$GPGGA,224048.083,2458.2208,N,12126.5444,E,1,6,1.51,13.2,M,15.2,M,,*6E
$GPRMC,224048.083,A,2458.2208,N,12126.5444,E,0.09,132.95,021017,,,A*69
$GPGGA,224407.301,2458.2231,N,12126.5362,E,1,5,2.13,26.4,M,15.2,M,,*67
$GPRMC,224407.301,A,2458.2231,N,12126.5362,E,1.28,112.05,021017,,,A*6F
$GPGGA,224719.309,2458.2230,N,12126.5356,E,1,5,1.60,29.1,M,15.2,M,,*68
$GPRMC,224719.309,A,2458.2230,N,12126.5356,E,0.57,327.66,021017,,,A*65
