$GPGGA,102027.000,2500.4324,N,12129.1141,E,1,3,3.08,135.0,M,15.2,M,,*59
$GPRMC,102027.000,A,2500.4324,N,12129.1141,E,0.30,15.75,260917,,,A*5C
$GPGGA,102233.000,2500.4775,N,12129.0455,E,1,4,2.89,61.1,M,15.2,M,,*61
$GPRMC,102233.000,A,2500.4775,N,12129.0455,E,2.52,291.40,260917,,,A*64
$GPGGA,102917.000,2500.6826,N,12128.7655,E,1,5,2.38,34.9,M,15.2,M,,*60
$GPRMC,102917.000,A,2500.6826,N,12128.7655,E,1.53,201.10,260917,,,A*68
$GPGGA,103003.273,2500.6697,N,12128.7501,E,1,4,2.66,3.0,M,15.2,M,,*5A
$GPRMC,103003.273,A,2500.6697,N,12128.7501,E,1.51,205.52,260917,,,A*65
$GPGGA,103102.265,2500.6889,N,12128.7334,E,1,5,1.55,24.0,M,15.2,M,,*6B
$GPRMC,103102.265,A,2500.6889,N,12128.7334,E,17.02,332.02,260917,,,A*52
$GPGGA,103212.256,2500.9713,N,12128.3972,E,1,5,1.71,30.1,M,15.1,M,,*67
$GPRMC,103212.256,A,2500.9713,N,12128.3972,E,19.48,337.60,260917,,,A*5E
$GPGGA,103256.244,2501.1282,N,12128.2865,E,1,7,1.14,7.5,M,15.1,M,,*57
$GPRMC,103256.244,A,2501.1282,N,12128.2865,E,0.49,227.64,260917,,,A*62
$GPGGA,103339.237,2501.0840,N,12128.2049,E,1,6,1.46,28.6,M,15.1,M,,*60
$GPRMC,103339.237,A,2501.0840,N,12128.2049,E,5.13,222.95,260917,,,A*6C
$GPGGA,103426.229,2500.9880,N,12128.0700,E,1,6,1.46,9.1,M,15.1,M,,*5E
$GPRMC,103426.229,A,2500.9880,N,12128.0700,E,22.84,231.48,260917,,,A*5F
$GPGGA,103508.222,2500.9566,N,12128.0153,E,1,5,1.97,23.0,M,15.1,M,,*6B
$GPRMC,103508.222,A,2500.9566,N,12128.0153,E,0.44,212.19,260917,,,A*65
$GPGGA,103551.215,2500.9427,N,12128.0132,E,1,5,1.67,17.9,M,15.1,M,,*61
$GPRMC,103551.215,A,2500.9427,N,12128.0132,E,0.64,208.49,260917,,,A*62
$GPGGA,103633.208,2500.9445,N,12128.0080,E,1,6,1.30,25.6,M,15.1,M,,*69
$GPRMC,103633.208,A,2500.9445,N,12128.0080,E,12.94,212.74,260917,,,A*5C
$GPGGA,103717.201,2500.7482,N,12127.7623,E,1,5,1.82,68.7,M,15.1,M,,*67
$GPRMC,103717.201,A,2500.7482,N,12127.7623,E,15.89,221.74,260917,,,A*5B
$GPGGA,103802.178,2500.5178,N,12127.5384,E,1,7,1.16,75.6,M,15.1,M,,*6B
$GPRMC,103802.178,A,2500.5178,N,12127.5384,E,24.56,214.48,260917,,,A*5C
$GPGGA,103845.186,2500.3791,N,12127.4410,E,1,6,1.31,15.3,M,15.1,M,,*62
$GPRMC,103845.186,A,2500.3791,N,12127.4410,E,18.10,222.57,260917,,,A*54
$GPGGA,103926.179,2500.2967,N,12127.3475,E,1,6,1.31,41.4,M,15.1,M,,*62
$GPRMC,103926.179,A,2500.2967,N,12127.3475,E,3.10,220.27,260917,,,A*6D
$GPGGA,104011.000,2500.2904,N,12127.3446,E,1,5,2.07,13.7,M,15.1,M,,*63
$GPRMC,104011.000,A,2500.2904,N,12127.3446,E,1.06,205.46,260917,,,A*68
$GPGGA,104056.149,2500.2582,N,12127.1669,E,1,6,1.44,10.7,M,15.1,M,,*67
$GPRMC,104056.149,A,2500.2582,N,12127.1669,E,27.01,353.24,260917,,,A*5D
$GPGGA,104157.157,2500.3079,N,12127.1076,E,1,5,1.46,-30.1,M,15.1,M,,*48
$GPRMC,104157.157,A,2500.3079,N,12127.1076,E,31.18,177.65,260917,,,A*54
$GPGGA,104238.147,2500.0682,N,12127.1040,E,1,5,1.88,19.4,M,15.1,M,,*66
$GPRMC,104238.147,A,2500.0682,N,12127.1040,E,20.84,188.99,260917,,,A*5D
$GPGGA,104320.141,2459.7986,N,12126.8780,E,1,7,1.17,21.9,M,15.1,M,,*68
$GPRMC,104320.141,A,2459.7986,N,12126.8780,E,48.17,216.74,260917,,,A*52
$GPGGA,104404.134,2459.7185,N,12126.7783,E,1,5,1.42,7.7,M,15.1,M,,*54
$GPRMC,104404.134,A,2459.7185,N,12126.7783,E,10.40,250.18,260917,,,A*51
$GPGGA,104445.127,2459.6885,N,12126.5963,E,1,6,1.71,4.3,M,15.1,M,,*5D
$GPRMC,104445.127,A,2459.6885,N,12126.5963,E,27.24,277.95,260917,,,A*5A
$GPGGA,104526.120,2459.7291,N,12126.2174,E,1,6,1.42,19.8,M,15.1,M,,*6E
$GPRMC,104526.120,A,2459.7291,N,12126.2174,E,34.88,277.03,260917,,,A*55
$GPGGA,104614.113,2459.6951,N,12125.9254,E,1,5,2.51,7.9,M,15.1,M,,*5F
$GPRMC,104614.113,A,2459.6951,N,12125.9254,E,18.73,192.44,260917,,,A*59
$GPGGA,104714.105,2459.6176,N,12125.9344,E,1,5,2.22,84.4,M,15.1,M,,*66
$GPRMC,104714.105,A,2459.6176,N,12125.9344,E,0.89,334.02,260917,,,A*62
$GPGGA,104756.096,2459.4904,N,12125.8897,E,1,6,1.72,14.5,M,15.1,M,,*6D
$GPRMC,104756.096,A,2459.4904,N,12125.8897,E,18.55,201.98,260917,,,A*58
$GPGGA,104857.089,2459.1669,N,12125.6756,E,1,5,2.18,24.3,M,15.1,M,,*69
$GPRMC,104857.089,A,2459.1669,N,12125.6756,E,5.77,246.05,260917,,,A*6E
$GPGGA,104942.000,2459.1423,N,12125.6092,E,1,4,2.36,16.4,M,15.1,M,,*65
$GPRMC,104942.000,A,2459.1423,N,12125.6092,E,7.77,241.69,260917,,,A*66
$GPGGA,105056.000,2459.1187,N,12125.5936,E,1,4,2.33,2.1,M,15.1,M,,*52
$GPRMC,105056.000,A,2459.1187,N,12125.5936,E,0.79,24.07,260917,,,A*54
$GPGGA,105206.000,2459.1064,N,12125.5993,E,1,4,2.37,-38.2,M,15.1,M,,*45
$GPRMC,105206.000,A,2459.1064,N,12125.5993,E,4.07,156.05,260917,,,A*6B
$GPGGA,105255.032,2459.1258,N,12125.5937,E,1,4,2.36,0.1,M,15.1,M,,*55
$GPRMC,105255.032,A,2459.1258,N,12125.5937,E,0.69,268.24,260917,,,A*6E
$GPGGA,105342.000,2459.1217,N,12125.5977,E,1,5,1.76,11.3,M,15.1,M,,*68
$GPRMC,105342.000,A,2459.1217,N,12125.5977,E,0.74,275.68,260917,,,A*6F
$GPGGA,105429.000,2459.1224,N,12125.5913,E,1,5,1.75,-3.7,M,15.1,M,,*79
$GPRMC,105429.000,A,2459.1224,N,12125.5913,E,1.62,183.65,260917,,,A*66
$GPGGA,105516.000,2459.1242,N,12125.5930,E,1,4,2.34,-3.8,M,15.1,M,,*7D
$GPRMC,105516.000,A,2459.1242,N,12125.5930,E,1.09,201.63,260917,,,A*68
$GPGGA,105609.001,2459.1182,N,12125.5896,E,1,4,2.33,-17.9,M,15.1,M,,*40
$GPRMC,105609.001,A,2459.1182,N,12125.5896,E,0.79,164.56,260917,,,A*66
$GPGGA,105714.000,2459.1192,N,12125.5818,E,1,4,2.31,-48.5,M,15.1,M,,*4F
$GPRMC,105714.000,A,2459.1192,N,12125.5818,E,3.87,160.16,260917,,,A*6F
$GPGGA,105802.000,2459.1245,N,12125.5941,E,1,4,2.30,18.6,M,15.1,M,,*69
$GPRMC,105802.000,A,2459.1245,N,12125.5941,E,4.40,155.81,260917,,,A*67
$GPGGA,105930.000,2459.1110,N,12125.6034,E,1,4,2.34,-29.1,M,15.1,M,,*4E
$GPRMC,105930.000,A,2459.1110,N,12125.6034,E,2.33,156.26,260917,,,A*60
$GPGGA,110119.000,2459.1246,N,12125.5896,E,1,4,2.26,-3.7,M,15.1,M,,*77
$GPRMC,110119.000,A,2459.1246,N,12125.5896,E,1.95,154.62,260917,,,A*69
$GPGGA,110211.000,2459.1334,N,12125.5918,E,1,4,2.25,3.5,M,15.1,M,,*53
$GPRMC,110211.000,A,2459.1334,N,12125.5918,E,0.56,347.80,260917,,,A*63
$GPGGA,110310.000,2459.1283,N,12125.5914,E,1,4,2.23,3.1,M,15.1,M,,*50
$GPRMC,110310.000,A,2459.1283,N,12125.5914,E,1.79,156.15,260917,,,A*60
$GPGGA,110350.924,2459.1254,N,12125.5895,E,1,4,2.22,-0.9,M,15.1,M,,*7E
$GPRMC,110350.924,A,2459.1254,N,12125.5895,E,2.36,127.17,260917,,,A*65
$GPGGA,110445.000,2459.1180,N,12125.5949,E,1,5,1.67,-6.4,M,15.1,M,,*70
$GPRMC,110445.000,A,2459.1180,N,12125.5949,E,0.71,265.29,260917,,,A*6A
$GPGGA,110525.908,2459.1153,N,12125.5916,E,1,4,2.04,66.9,M,15.1,M,,*63
$GPRMC,110525.908,A,2459.1153,N,12125.5916,E,0.48,22.68,260917,,,A*56
$GPGGA,110613.918,2459.1246,N,12125.5914,E,1,5,1.66,2.1,M,15.1,M,,*5D
$GPRMC,110613.918,A,2459.1246,N,12125.5914,E,0.29,75.02,260917,,,A*5D
$GPGGA,110656.910,2459.1227,N,12125.5904,E,1,4,2.44,-4.4,M,15.1,M,,*7E
$GPRMC,110656.910,A,2459.1227,N,12125.5904,E,1.74,306.78,260917,,,A*61
$GPGGA,110806.000,2459.1263,N,12125.5932,E,1,4,2.15,-7.9,M,15.1,M,,*72
$GPRMC,110806.000,A,2459.1263,N,12125.5932,E,0.50,233.56,260917,,,A*6B
$GPGGA,110852.000,2459.1196,N,12125.6043,E,1,4,2.47,-10.2,M,15.1,M,,*4C
$GPRMC,110852.000,A,2459.1196,N,12125.6043,E,1.25,289.37,260917,,,A*6A
$GPGGA,110942.868,2459.1245,N,12125.5852,E,1,5,1.63,-15.4,M,15.1,M,,*4B
$GPRMC,110942.868,A,2459.1245,N,12125.5852,E,1.34,199.82,260917,,,A*66
$GPGGA,111026.876,2459.1191,N,12125.5984,E,1,4,2.12,7.2,M,15.1,M,,*52
$GPRMC,111026.876,A,2459.1191,N,12125.5984,E,3.77,143.53,260917,,,A*6D
$GPGGA,111131.869,2459.1316,N,12125.5930,E,1,4,2.10,-10.1,M,15.1,M,,*43
$GPRMC,111131.869,A,2459.1316,N,12125.5930,E,1.92,134.90,260917,,,A*60
$GPGGA,111250.858,2459.1297,N,12125.5953,E,1,5,1.61,-16.1,M,15.1,M,,*4A
$GPRMC,111250.858,A,2459.1297,N,12125.5953,E,0.22,102.47,260917,,,A*6E
$GPGGA,111343.845,2459.1279,N,12125.5815,E,1,4,2.06,-32.3,M,15.1,M,,*41
$GPRMC,111343.845,A,2459.1279,N,12125.5815,E,0.61,148.85,260917,,,A*65
$GPGGA,111538.837,2459.1323,N,12125.5934,E,1,6,1.29,3.4,M,15.1,M,,*56
$GPRMC,111538.837,A,2459.1323,N,12125.5934,E,1.27,18.37,260917,,,A*58
$GPGGA,111621.818,2459.1269,N,12125.5897,E,1,5,1.58,9.4,M,15.1,M,,*58
$GPRMC,111621.818,A,2459.1269,N,12125.5897,E,0.84,1.23,260917,,,A*6C
$GPGGA,111701.811,2459.1236,N,12125.5997,E,1,5,1.58,-4.6,M,15.1,M,,*7B
$GPRMC,111701.811,A,2459.1236,N,12125.5997,E,0.69,173.53,260917,,,A*6D
$GPGGA,111743.805,2459.1292,N,12125.5940,E,1,5,1.57,5.8,M,15.1,M,,*51
$GPRMC,111743.805,A,2459.1292,N,12125.5940,E,1.17,11.27,260917,,,A*54
$GPGGA,111832.798,2459.1278,N,12125.5890,E,1,4,1.83,9.9,M,15.1,M,,*5E
$GPRMC,111832.798,A,2459.1278,N,12125.5890,E,0.90,44.70,260917,,,A*52
$GPGGA,112022.000,2459.1255,N,12125.5904,E,1,4,1.81,22.8,M,15.1,M,,*6B
$GPRMC,112022.000,A,2459.1255,N,12125.5904,E,0.51,168.88,260917,,,A*68
$GPGGA,112101.772,2459.1336,N,12125.5893,E,1,4,1.80,-19.3,M,15.1,M,,*4D
$GPRMC,112101.772,A,2459.1336,N,12125.5893,E,1.25,335.59,260917,,,A*65
$GPGGA,112143.766,2459.1240,N,12125.5917,E,1,4,1.79,40.4,M,15.1,M,,*63
$GPRMC,112143.766,A,2459.1240,N,12125.5917,E,0.53,205.04,260917,,,A*61
$GPGGA,112232.759,2459.1120,N,12125.5803,E,1,4,1.78,109.6,M,15.1,M,,*54
$GPRMC,112232.759,A,2459.1120,N,12125.5803,E,0.97,211.81,260917,,,A*69
$GPGGA,112313.751,2459.1296,N,12125.5900,E,1,4,1.92,27.0,M,15.1,M,,*6D
$GPRMC,112313.751,A,2459.1296,N,12125.5900,E,0.90,79.93,260917,,,A*57
$GPGGA,112356.745,2459.1289,N,12125.5893,E,1,4,1.91,15.0,M,15.1,M,,*6E
$GPRMC,112356.745,A,2459.1289,N,12125.5893,E,1.00,4.61,260917,,,A*69
$GPGGA,112437.738,2459.1291,N,12125.5917,E,1,5,1.53,12.3,M,15.1,M,,*6B
$GPRMC,112437.738,A,2459.1291,N,12125.5917,E,1.14,112.12,260917,,,A*60
$GPGGA,112519.731,2459.1259,N,12125.5931,E,1,5,1.52,19.7,M,15.1,M,,*61
$GPRMC,112519.731,A,2459.1259,N,12125.5931,E,0.28,355.00,260917,,,A*68
$GPGGA,112608.724,2459.1267,N,12125.5903,E,1,5,1.52,4.4,M,15.1,M,,*55
$GPRMC,112608.724,A,2459.1267,N,12125.5903,E,0.40,195.03,260917,,,A*60
$GPGGA,112657.716,2459.1249,N,12125.5889,E,1,4,2.64,20.3,M,15.1,M,,*67
$GPRMC,112657.716,A,2459.1249,N,12125.5889,E,0.72,318.52,260917,,,A*66
$GPGGA,112744.708,2459.1273,N,12125.5879,E,1,4,2.65,-0.6,M,15.1,M,,*76
$GPRMC,112744.708,A,2459.1273,N,12125.5879,E,2.01,329.68,260917,,,A*61
$GPGGA,112829.701,2459.1362,N,12125.5907,E,1,4,2.65,2.4,M,15.1,M,,*5F
$GPRMC,112829.701,A,2459.1362,N,12125.5907,E,0.70,314.04,260917,,,A*65
$GPGGA,112926.693,2459.1258,N,12125.5894,E,1,5,1.50,-17.1,M,15.1,M,,*40
$GPRMC,112926.693,A,2459.1258,N,12125.5894,E,0.81,296.87,260917,,,A*6C
$GPGGA,113238.000,2459.1503,N,12125.5965,E,1,4,1.68,-161.2,M,15.1,M,,*76
$GPRMC,113238.000,A,2459.1503,N,12125.5965,E,0.74,356.46,260917,,,A*69
$GPGGA,113422.653,2459.1265,N,12125.5941,E,1,4,2.66,45.3,M,15.1,M,,*6C
$GPRMC,113422.653,A,2459.1265,N,12125.5941,E,0.15,63.44,260917,,,A*55
$GPGGA,113508.636,2459.1343,N,12125.5881,E,1,4,2.66,-29.6,M,15.1,M,,*4C
$GPRMC,113508.636,A,2459.1343,N,12125.5881,E,2.04,336.08,260917,,,A*6E
$GPGGA,113636.629,2459.1328,N,12125.5900,E,1,4,2.65,-8.8,M,15.1,M,,*77
$GPRMC,113636.629,A,2459.1328,N,12125.5900,E,1.00,347.31,260917,,,A*60
$GPGGA,113810.000,2459.1311,N,12125.5866,E,1,4,2.65,24.1,M,15.1,M,,*61
$GPRMC,113810.000,A,2459.1311,N,12125.5866,E,3.43,318.18,260917,,,A*68
$GPGGA,114323.000,2459.1338,N,12125.5863,E,1,4,2.62,-2.5,M,15.1,M,,*79
$GPRMC,114323.000,A,2459.1338,N,12125.5863,E,1.75,329.80,260917,,,A*6E
$GPGGA,114444.000,2459.1359,N,12125.5878,E,1,4,2.61,1.6,M,15.1,M,,*5C
$GPRMC,114444.000,A,2459.1359,N,12125.5878,E,0.17,224.71,260917,,,A*62
$GPGGA,114648.000,2459.1071,N,12125.6147,E,1,4,1.60,226.2,M,15.1,M,,*5C
$GPRMC,114648.000,A,2459.1071,N,12125.6147,E,1.90,299.04,260917,,,A*69
$GPGGA,114755.000,2459.1101,N,12125.6064,E,1,4,1.60,93.5,M,15.1,M,,*6C
$GPRMC,114755.000,A,2459.1101,N,12125.6064,E,1.99,143.39,260917,,,A*61
$GPGGA,115437.000,2459.1266,N,12125.5960,E,1,4,1.58,63.2,M,15.1,M,,*65
$GPRMC,115437.000,A,2459.1266,N,12125.5960,E,1.75,339.27,260917,,,A*69
$GPGGA,115634.000,2459.1250,N,12125.5930,E,1,4,1.58,46.5,M,15.1,M,,*64
$GPRMC,115634.000,A,2459.1250,N,12125.5930,E,0.98,132.18,260917,,,A*6F
$GPGGA,115831.406,2459.1243,N,12125.6002,E,1,4,2.16,63.3,M,15.1,M,,*6C
$GPRMC,115831.406,A,2459.1243,N,12125.6002,E,1.74,151.92,260917,,,A*6B
$GPGGA,120046.000,2459.1129,N,12125.6003,E,1,4,2.17,23.9,M,15.1,M,,*61
$GPRMC,120046.000,A,2459.1129,N,12125.6003,E,0.64,185.71,260917,,,A*6D
$GPGGA,120726.365,2459.1264,N,12125.5991,E,1,4,2.19,38.9,M,15.1,M,,*6F
$GPRMC,120726.365,A,2459.1264,N,12125.5991,E,0.37,223.68,260917,,,A*66
$GPGGA,120851.317,2459.1241,N,12125.6023,E,1,4,2.20,51.1,M,15.1,M,,*6C
$GPRMC,120851.317,A,2459.1241,N,12125.6023,E,0.71,167.56,260917,,,A*64
$GPGGA,121715.303,2459.1260,N,12125.6033,E,1,5,1.38,56.5,M,15.1,M,,*6D
$GPRMC,121715.303,A,2459.1260,N,12125.6033,E,0.55,326.40,260917,,,A*6B
$GPGGA,121822.222,2459.1334,N,12125.5966,E,1,5,1.38,74.8,M,15.1,M,,*63
$GPRMC,121822.222,A,2459.1334,N,12125.5966,E,0.46,215.14,260917,,,A*6A
$GPGGA,122329.000,2459.1366,N,12125.6061,E,1,4,2.24,87.6,M,15.1,M,,*65
$GPRMC,122329.000,A,2459.1366,N,12125.6061,E,0.56,293.82,260917,,,A*61
$GPGGA,122734.000,2459.1338,N,12125.6057,E,1,4,2.20,82.5,M,15.1,M,,*61
$GPRMC,122734.000,A,2459.1338,N,12125.6057,E,1.63,203.00,260917,,,A*63
$GPGGA,122908.000,2459.1164,N,12125.5890,E,1,4,2.19,-14.4,M,15.1,M,,*42
$GPRMC,122908.000,A,2459.1164,N,12125.5890,E,3.43,31.34,260917,,,A*5D
$GPGGA,123158.000,2459.1372,N,12125.6033,E,1,4,2.18,57.3,M,15.1,M,,*65
$GPRMC,123158.000,A,2459.1372,N,12125.6033,E,0.63,308.81,260917,,,A*60
$GPGGA,123306.000,2459.1282,N,12125.5942,E,1,4,2.17,50.8,M,15.1,M,,*6D
$GPRMC,123306.000,A,2459.1282,N,12125.5942,E,0.69,105.63,260917,,,A*62
$GPGGA,123355.000,2459.1296,N,12125.5963,E,1,4,2.17,53.1,M,15.1,M,,*67
$GPRMC,123355.000,A,2459.1296,N,12125.5963,E,4.04,209.42,260917,,,A*61
$GPGGA,123445.000,2459.1390,N,12125.6087,E,1,4,2.17,105.6,M,15.1,M,,*53
$GPRMC,123445.000,A,2459.1390,N,12125.6087,E,1.32,240.92,260917,,,A*60
$GPGGA,123536.000,2459.1166,N,12125.5822,E,1,4,2.16,-26.5,M,15.1,M,,*46
$GPRMC,123536.000,A,2459.1166,N,12125.5822,E,2.97,194.21,260917,,,A*64
$GPGGA,123638.000,2459.0874,N,12125.5685,E,1,4,2.16,-138.0,M,15.1,M,,*78
$GPRMC,123638.000,A,2459.0874,N,12125.5685,E,2.78,34.28,260917,,,A*52
